,Station_Type,Activated,Station_ID,Station_Name,County,District,T_Status,N_Mrt,N_Train,N_Thsr,Station_Address,lat,lng,Vol_All,Vol_Workday,Vol_Weekend,Weekend_Percent
0,TpMrt,1,BL01,頂埔站,新北市,土城區,N,1,0,0,新北市土城區中央路4段51之6號,24.96012,121.4205,16206.0978494624,17338.7278687496,13376.6166666667,0.232698350585826
1,TpMrt,1,BL02,永寧站,新北市,土城區,N,1,0,0,新北市土城區中央路3段105號,24.96682,121.43613,26551.8562724014,27670.4243051634,23808.9666666667,0.252591584659849
2,TpMrt,1,BL03,土城站,新北市,土城區,N,1,0,0,新北市土城區金城路1段105號,24.97313,121.44432,14611.5315412186,15296.4327122153,12867.9833333333,0.248913796984097
3,TpMrt,1,BL04,海山站,新北市,土城區,N,1,0,0,新北市土城區海山路39號,24.985305,121.44873,42573.6465949821,45469.5898738942,35346.9,0.23402545518748
4,TpMrt,1,BL05,亞東醫院站,新北市,板橋區,N,1,0,0,新北市板橋區南雅南路2段17號,24.99828,121.452465,45962.7014336918,50889.5123909907,33598.3333333333,0.206091026733078
5,TpMrt,1,BL06,府中站,新北市,板橋區,N,1,0,0,新北市板橋區縣民大道1段193號,25.008465,121.459276,60032.2014336918,61306.4180312441,56911.7833333333,0.267433303743658
7,TpMrt,1,BL08,新埔站,新北市,板橋區,N,1,0,0,新北市板橋區民生路3段2號,25.02327,121.468055,79878.5010752688,85524.8447832361,65742.625,0.232128593548907
8,TpMrt,1,BL09,江子翠站,新北市,板橋區,N,1,0,0,新北市板橋區文化路2段296號,25.030265,121.47257,50542.5620071685,53742.375117636,42532.9416666667,0.237315020839237
9,TpMrt,1,BL10,龍山寺站,台北市,萬華區,N,1,0,0,台北市萬華區西園路1段153號,25.03528,121.500325,62599.7516129032,63102.7388481084,61476.3333333333,0.276921776490267
10,TpMrt,1,BL13,善導寺站,台北市,中正區,N,1,0,0,台北市中正區忠孝東路1段58號,25.04468,121.523885,44154.0777777778,48742.2807892591,32595.7333333333,0.208427698738422
11,TpMrt,1,BL16,忠孝敦化站,台北市,大安區,N,1,0,0,台北市大安區忠孝東路4段182號,25.041505,121.55045,71288.9032258065,74050.5543635109,64349.3583333333,0.254762519369352
12,TpMrt,1,BL17,國父紀念館站,台北市,信義區,N,1,0,0,台北市信義區忠孝東路4段400號,25.04137,121.557815,46163.9189964158,48013.8418972332,41499.2083333333,0.253818124691277
13,TpMrt,1,BL18,市政府站,台北市,信義區,N,1,0,0,台北市信義區忠孝東路5段2號,25.041135,121.565685,123294.576702509,127725.183574879,112336.666666667,0.256682685104122
14,TpMrt,1,BL19,永春站,台北市,信義區,N,1,0,0,台北市信義區忠孝東路5段455號,25.040855,121.5762,39166.0146953405,42455.4978668674,30917.6083333333,0.222533120165599
15,TpMrt,1,BL20,後山埤站,台北市,南港區,N,1,0,0,台北市南港區忠孝東路6段2號,25.044715,121.58227,33294.6666666667,34949.619675011,29180.3833333333,0.247132066026167
16,TpMrt,1,BL21,昆陽站,台北市,南港區,N,1,0,0,台北市南港區忠孝東路6段451號,25.050459,121.593228,26818.3010752688,30041.9422799423,18680.6916666667,0.196563594281068
18,TpMrt,1,BR01,動物園站,台北市,文山區,N,1,0,0,台北市文山區新光路2段32號,24.998205,121.579501,17291.7709677419,15982.7341426689,20509.5,0.334705477526467
19,TpMrt,1,BR02,木柵站,台北市,文山區,N,1,0,0,台北市文山區木柵路4段135號,24.99824,121.573127,8425.68888888889,9180.11823200954,6540.83333333333,0.218766545840196
20,TpMrt,1,BR03,萬芳社區站,台北市,文山區,N,1,0,0,台北市文山區萬芳路60號,24.99857,121.568088,4577.48996415771,4930.53472614342,3688.84166666667,0.227482123476593
21,TpMrt,1,BR04,萬芳醫院站,台北市,文山區,N,1,0,0,台北市文山區興隆路3段113號,24.99932,121.558092,27352.4329749104,30464.2775895602,19491.975,0.201366841564609
22,TpMrt,1,BR05,辛亥站,台北市,文山區,N,1,0,0,台北市文山區辛亥路4段128號,25.005455,121.557046,6065.42759856631,6492.55078737687,4991.46666666667,0.23226675465739
23,TpMrt,1,BR06,麟光站,台北市,大安區,N,1,0,0,台北市大安區和平東路3段410號,25.018495,121.558834,8720.4329749104,8852.33201581028,8318.64166666667,0.270607827669858
24,TpMrt,1,BR07,六張犁站,台北市,大安區,N,1,0,0,台北市大安區和平東路3段168號,25.02381,121.55302,22572.7770609319,24772.7998933434,17022.7333333333,0.212929251761098
25,TpMrt,1,BR08,科技大樓站,台北市,大安區,N,1,0,0,台北市大安區復興南路2段235號,25.02612,121.543462,28412.49390681,31321.7085764477,21055.3333333333,0.209439110424814
26,TpMrt,1,BR10_BL15,忠孝復興站,台北市,大安區,M,2,0,0,台北市大安區忠孝東路3段302號,25.041749,121.545026,96378.6444444444,96538.6572871573,96019.775,0.281293180242075
27,TpMrt,1,BR11_G16,南京復興站,台北市,松山區,M,2,0,0,台北市松山區南京東路3段253號,25.052044,121.544303,75055.923297491,85716.5356672313,48159.1416666667,0.180936446362296
28,TpMrt,1,BR12,中山國中站,台北市,中山區,N,1,0,0,台北市中山區復興北路376號,25.06085,121.544215,28717.8666666667,31954.0222724136,20580.3416666667,0.202024975180337
29,TpMrt,1,BR13,松山機場站,台北市,松山區,N,1,0,0,台北市松山區敦化北路338號,25.062908,121.55201,11004.3931899642,11602.231570362,9497.11666666667,0.243601075198033
30,TpMrt,1,BR14,大直站,台北市,中山區,N,1,0,0,台北市中山區北安路534之1號,25.07943,121.54679,18685.2784946237,20414.8855009725,14380.0083333333,0.21704146332392
31,TpMrt,1,BR15,劍南路站,台北市,中山區,N,1,0,0,台北市中山區北安路798號,25.08483,121.555582,24184.3917562724,24073.4482401656,24493.1083333333,0.286026537417866
32,TpMrt,1,BR16,西湖站,台北市,內湖區,N,1,0,0,台北市內湖區內湖路1段256號,25.08216,121.567227,30234.1996415771,37308.8438421482,12389.05,0.115445251846771
33,TpMrt,1,BR17,港墘站,台北市,內湖區,N,1,0,0,台北市內湖區內湖路1段663號,25.08007,121.57516,29476.0541218638,35205.0281698977,15072.975,0.143720198626975
34,TpMrt,1,BR18,文德站,台北市,內湖區,N,1,0,0,台北市內湖區文德路214號,25.078455,121.584999,10743.2301075269,11676.1443315139,8420.275,0.220637085274611
35,TpMrt,1,BR19,內湖站,台北市,內湖區,N,1,0,0,台北市內湖區成功路4段186號,25.083675,121.594363,18134.6605734767,18772.6146245059,16537.3916666667,0.257412615944952
36,TpMrt,1,BR20,大湖公園站,台北市,內湖區,N,1,0,0,台北市內湖區成功路5段11號,25.083805,121.602214,6978.49713261649,7023.55815923207,6890.9,0.278192163163892
37,TpMrt,1,BR21,葫洲站,台北市,內湖區,N,1,0,0,台北市內湖區康寧路3段16號,25.07271,121.607146,15859.79390681,17519.7342054081,11705.8833333333,0.208038609734521
38,TpMrt,1,BR22,東湖站,台北市,內湖區,N,1,0,0,台北市內湖區康寧路3段235號,25.067455,121.611535,16587.6318996416,17832.4383587427,13462.2416666667,0.229088107341494
39,TpMrt,1,BR23,南港軟體園區站,台北市,南港區,N,1,0,0,台北市南港區經貿二路183號,25.05992,121.615,9376.97347670251,11067.9621996361,5119.45833333333,0.153172154004762
40,TpMrt,1,BR24_BL23,南港展覽館站,台北市,南港區,M,2,0,0,文湖線：115018台北市南港區南港路1段32號,25.054919,121.616861,60264.5225806452,64872.9989334337,49304.3833333333,0.228581231903012
41,TpMrt,1,G01,新店站,新北市,新店區,N,1,0,0,新北市新店區北宜路1段2號,24.95761,121.53746,26444.3917562724,26071.2324800803,27447.15,0.291019733479817
42,TpMrt,1,G02,新店區公所站,新北市,新店區,N,1,0,0,新北市新店區北新路1段295號,24.96744,121.5413,22723.6956989247,24040.423175858,19423.4166666667,0.241215086338931
43,TpMrt,1,G03,七張站,新北市,新店區,N,1,0,0,新北市新店區北新路2段150號,24.97545,121.542985,32828.605734767,34936.5183198444,27531.6,0.236714760754498
44,TpMrt,1,G03A,小碧潭站,新北市,新店區,N,1,0,0,新北市新店區中央路151號,24.97188,121.53058,4767.43225806452,4897.59881422925,4442.88333333333,0.263043862191312
45,TpMrt,1,G04_Y07,大坪林站,新北市,新店區,M,2,0,0,新北市新店區北新路3段190號,24.98272,121.54134,41047.7401433692,44776.102955016,31671.8916666667,0.217652918548437
46,TpMrt,1,G05,景美站,台北市,文山區,N,1,0,0,台北市文山區羅斯福路6段216號,24.992824,121.540697,34082.1612903226,35320.2834870444,31068.05,0.25693120775666
47,TpMrt,1,G06,萬隆站,台北市,文山區,N,1,0,0,台北市文山區羅斯福路5段214號,25.001978,121.539008,19707.2620071685,20506.161427944,17712.6,0.253616083820447
48,TpMrt,1,G07,公館站,台北市,中正區,N,1,0,0,台北市中正區羅斯福路4段64之1號,25.014781,121.534358,59248.3523297491,57968.451941778,62259.975,0.297158210344329
49,TpMrt,1,G08,台電大樓站,台北市,中正區,N,1,0,0,台北市中正區羅斯福路3段126之5號,25.020733,121.528143,36955.576702509,37656.387477257,35194.3,0.268959234940454
50,TpMrt,1,G09_O05,古亭站,台北市,中正區,M,2,0,0,台北市中正區羅斯福路2段164之1號,25.026373,121.522868,65087.4007168459,69878.6124286342,53022.3083333333,0.230011778754962
51,TpMrt,1,G11,小南門站,台北市,中正區,N,1,0,0,台北市中正區愛國西路22號,25.035585,121.51088,19011.3186379928,22316.3701926093,10785.8166666667,0.159450947278885
52,TpMrt,1,G12_BL11,西門站,台北市,中正區,M,2,0,0,台北市中正區寶慶路32之1號,25.042025,121.508175,151667.054480287,145938.210082188,166198.791666667,0.309541071090016
53,TpMrt,1,G13,北門站,台北市,大同區,N,1,0,0,台北市大同區塔城街10號,25.049554,121.510184,25872.6917562724,26622.3951314386,24051.65,0.261636938535628
54,TpMrt,1,G15_O08,松江南京站,台北市,中山區,M,2,0,0,台北市中山區松江路126號,25.052693,121.53285,70836.6956989247,82757.5788004266,40738.0416666667,0.162152084683085
55,TpMrt,1,G17,台北小巨蛋站,台北市,松山區,N,1,0,0,台北市松山區南京東路4段10之1號,25.05152,121.552549,46976.1903225807,50916.3276240668,36938.1666666667,0.222481213540641
56,TpMrt,1,G18,南京三民站,台北市,松山區,N,1,0,0,台北市松山區南京東路5段237號,25.051588,121.56471,46258.9580645161,51342.3469163687,33452.9666666667,0.203948713528703
58,TpMrt,1,O01,南勢角站,新北市,中和區,N,1,0,0,新北市中和區捷運路6號,24.990065,121.509237,43049.2207885305,45433.0854821507,37106.2,0.243099911478727
59,TpMrt,1,O02_Y11,景安站,新北市,中和區,M,2,0,0,新北市中和區景平路486號,24.99392,121.505114,49729.6243727599,53292.9453541627,40791.25,0.231383929040224
60,TpMrt,1,O03,永安市場站,新北市,中和區,N,1,0,0,新北市中和區中和路388號,25.002895,121.511225,53092.688172043,56240.2811343246,45208.85,0.240248559949644
61,TpMrt,1,O04,頂溪站,新北市,永和區,N,1,0,0,新北市永和區永和路2段168號,25.013858,121.515462,73071.4781362007,76692.9021268587,63995.3333333333,0.247167016585754
62,TpMrt,1,O07_BL14,忠孝新生站,台北市,大安區,M,2,0,0,台北市大安區新生南路1段67號,25.042498,121.53321,68118.0724014337,69091.7478511826,65680.2333333333,0.272151452870751
63,TpMrt,1,O09,行天宮站,台北市,中山區,N,1,0,0,台北市中山區松江路316號,25.05924,121.53315,55989.8483870968,61295.9250580338,42679.6833333333,0.214768787597646
64,TpMrt,1,O10,中山國小站,台北市,中山區,N,1,0,0,台北市中山區民權東路1段71號,25.062665,121.526609,34417.6107526882,37264.5974967062,27270.9666666667,0.22352691087911
65,TpMrt,1,O12,大橋頭站,台北市,大同區,N,1,0,0,台北市大同區民權西路223號,25.06322,121.513003,26358.0089605735,27207.4906204906,24315.65,0.259582016486995
66,TpMrt,1,O13,台北橋站,新北市,三重區,N,1,0,0,新北市三重區重新路1段108號,25.063075,121.500575,19620.9369175627,20067.8224480833,18495.475,0.266230131958897
67,TpMrt,1,O14,菜寮站,新北市,三重區,N,1,0,0,新北市三重區重新路3段150號,25.059451,121.491421,19413.3483870968,20909.849614154,15667.075,0.227676702446287
68,TpMrt_TyMrt,1,O15_A2,三重站,新北市,三重區,M,2,0,0,新北市三重區捷運路36號,25.05571,121.48422,13593.901075,13779.57397,13114.358333,0.448956740824748
69,TpMrt,1,O16,先嗇宮站,新北市,三重區,N,1,0,0,新北市三重區重新路5段515號,25.04632,121.47165,315114.791398,302843.783267,345768.25,0.39875232754223
70,TpMrt,1,O17_Y18,頭前庄站,新北市,新莊區,M,2,0,0,新北市新莊區思源路18號,25.039862,121.460479,7855.622939,8251.335216,6929.5,0.338533389587824
71,TpMrt,1,O18,新莊站,新北市,新莊區,N,1,0,0,新北市新莊區中正路138號,25.03608,121.45218,21618.0892473118,23018.6035824079,18140.5666666667,0.23641259793869
72,TpMrt,1,O19,輔大站,新北市,新莊區,N,1,0,0,新北市新莊區中正路510之1號,25.03279,121.435735,22210.2605734767,24599.4509693205,16368.3333333333,0.208121047878297
73,TpMrt,1,O20,丹鳳站,新北市,新莊區,N,1,0,0,新北市新莊區中正路624之1號,25.029073,121.422422,18395.6426523297,19455.9656189221,15749.1,0.241444135748605
74,TpMrt,1,O21,迴龍站,新北市,新莊區,N,1,0,0,新北市新莊區中正路758號,25.022107,121.411757,19588.1666666667,21072.6835435096,15892.9583333333,0.22879975558163
75,TpMrt,1,O50,三重國小站,新北市,三重區,N,1,0,0,新北市三重區三和路3段5號,25.070275,121.49701,23730.311827957,24894.6110170023,20816.55,0.247539621776157
76,TpMrt,1,O51,三和國中站,新北市,三重區,N,1,0,0,新北市三重區三和路4段107號,25.07646,121.486795,24221.1096774194,25953.94867934,19871.1833333333,0.231477437754096
77,TpMrt,1,O52,徐匯中學站,新北市,蘆洲區,N,1,0,0,新北市蘆洲區中山一路3號,25.080485,121.479945,24422.0415770609,25719.498368781,21184.2333333333,0.244602852605894
78,TpMrt,1,O53,三民高中站,新北市,蘆洲區,N,1,0,0,新北市蘆洲區三民路105號,25.085425,121.473365,24229.7164874552,25826.2439299831,20257.3,0.235604011906229
79,TpMrt,1,O54,蘆洲站,新北市,蘆洲區,N,1,0,0,新北市蘆洲區三民路386號,25.09152,121.46471,26780.8874551971,28580.3042850869,22279.0916666667,0.234628832324924
80,TpMrt,1,R02,象山站,台北市,信義區,N,1,0,0,台北市信義區信義路5段152號,25.032395,121.570116,25796.0802867384,27991.5499717674,20312.3583333333,0.221904181791988
81,TpMrt,1,R03,台北101/世貿站,台北市,信義區,N,1,0,0,台北市信義區信義路5段20號,25.032865,121.563667,70584.5462365592,69201.8312002008,74563.525,0.295950055583971
82,TpMrt,1,R04,信義安和站,台北市,大安區,N,1,0,0,台北市大安區信義路4段212之1號,25.033015,121.552326,35938.305734767,39259.8853754941,27563.575,0.216369537406477
83,TpMrt,1,R05_BR09,大安站,台北市,大安區,M,2,0,0,台北市大安區信義路3段180號,25.033311,121.54237,49259.0430107527,55133.2192421106,34547.5,0.197645843881022
84,TpMrt,1,R06,大安森林公園站,台北市,大安區,N,1,0,0,台北市大安區信義路3段100號,25.033225,121.536151,18561.9189964158,17188.5432900433,22095.4166666667,0.335557661096112
85,TpMrt,1,R07_O06,東門站,台北市,大安區,M,2,0,0,台北市大安區信義路2段166號,25.033894,121.528766,52135.770609319,53458.6749168706,48848.6,0.264508738437221
86,TpMrt,1,R08_G10,中正紀念堂站,台北市,中正區,M,2,0,0,台北市中正區羅斯福路1段8之1號,25.032767,121.518273,61146.7315412186,62630.3550724638,57708.95,0.265060191109814
87,TpMrt,1,R09,台大醫院站,台北市,中正區,N,1,0,0,台北市中正區公園路52號,25.041399,121.51602,45507.6308243728,53108.8368467282,26375.175,0.163353609016118
88,TpMrt_TyMrt_Train_Thsr,1,R10_BL12_A1_1000_Taipei,台北車站,台北市,中正區,MTH,3,1,1,台北市中正區忠孝西路1段49號,25.047702,121.5173735,313775.874910394,301570.743679026,344266.391666667,0.310122654235557
89,TpMrt,1,R11_G14,中山站,台北市,大同區,M,2,0,0,台北市大同區南京西路16號,25.052621,121.520364,85426.3741935484,84360.8060417843,88194.7666666667,0.291476299477738
90,TpMrt,1,R12,雙連站,台北市,大同區,N,1,0,0,台北市大同區民生西路47號,25.057575,121.520685,45618.1035842294,48846.4324926281,37520.9916666667,0.231928948611906
91,TpMrt,1,R13_O11,民權西路站,台北市,大同區,M,2,0,0,台北市大同區民權西路72號,25.06235,121.519585,47150.9010752688,50512.3662400401,38785.6083333333,0.231857238725528
92,TpMrt,1,R14,圓山站,台北市,大同區,N,1,0,0,台北市大同區酒泉街9之1號,25.071409,121.520074,58504.1211469534,57744.0939519418,60766.7333333333,0.291719947262194
93,TpMrt,1,R15,劍潭站,台北市,士林區,N,1,0,0,台北市士林區中山北路5段65號,25.084201,121.524955,69463.7598566308,69711.2639124161,69148.1083333333,0.280526248782481
94,TpMrt,1,R16,士林站,台北市,士林區,N,1,0,0,台北市士林區福德路1號,25.093492,121.52623,59860.1268817204,61080.5425058034,56834.5166666667,0.268084805179831
95,TpMrt,1,R17,芝山站,台北市,士林區,N,1,0,0,台北市士林區福國路70號,25.102718,121.522546,47422.635483871,49272.36002886,42867.7416666667,0.254839294409435
96,TpMrt,1,R18,明德站,台北市,北投區,N,1,0,0,台北市北投區明德路95號,25.109815,121.518785,24344.558781362,26915.0463956334,17876.8666666667,0.20714569801594
97,TpMrt,1,R19,石牌站,台北市,北投區,N,1,0,0,台北市北投區石牌路1段200號,25.114455,121.515572,61614.7924731183,66464.6797164188,49413.2916666667,0.226394384424007
98,TpMrt,1,R20,唭哩岸站,台北市,北投區,N,1,0,0,台北市北投區東華街2段301號,25.120852,121.506234,14341.0017921147,15131.1626199887,12366.25,0.243249474407599
99,TpMrt,1,R21,奇岩站,台北市,北投區,N,1,0,0,台北市北投區三合街2段489號,25.12547,121.50114,16997.2810035842,18653.0445134576,12850.1416666667,0.212998347710539
100,TpMrt,1,R22,北投站,台北市,北投區,N,1,0,0,台北市北投區光明路1號,25.131819,121.498648,37366.5286738351,39063.7802246063,33177.8166666667,0.250268569611312
101,TpMrt,1,R22A,新北投站,台北市,北投區,N,1,0,0,台北市北投區大業路700號,25.136931,121.502595,13353.5394265233,12759.9955455173,14850.2916666667,0.314636059324555
102,TpMrt,1,R23,復興崗站,台北市,北投區,N,1,0,0,台北市北投區中央北路3段53巷10號,25.137497,121.485456,7208.74193548387,7603.08372545329,6228.11666666667,0.243530966493702
103,TpMrt,1,R24,忠義站,台北市,北投區,N,1,0,0,台北市北投區中央北路4段301號,25.130923,121.473298,6259.42043010753,7213.68068887634,3855.99166666667,0.173683148961717
104,TpMrt,1,R25,關渡站,台北市,北投區,N,1,0,0,台北市北投區大度路3段296巷51號,25.12551,121.467,23950.8322580645,26385.2745153397,17887.8916666667,0.210562296586531
105,TpMrt,1,R26,竹圍站,新北市,淡水區,N,1,0,0,新北市淡水區民權路50號,25.1369,121.45955,19056.5964157706,19905.7977915804,16950.5833333333,0.250849753566702
106,TpMrt_TpLr,1,R27_V01,紅樹林站,新北市,淡水區,N,2,0,0,新北市淡水區中正東路2段68號,25.15399,121.4588,22324.8336917563,22286.6649099693,22408,0.283944681482062
107,TpMrt,1,R28,淡水站,新北市,淡水區,N,1,0,0,新北市淡水區中正路1號,25.167745,121.445805,78134.3089605735,76652.1677959721,82203.9166666667,0.296153174818751
108,TpMrt,1,Y08,十四張站,新北市,新店區,N,1,0,0,新北市新店區民權路282號,24.984333,121.527698,2302.6,2535.80952380952,1758.44444444444,0.22910333246475
109,TpMrt,1,Y09,秀朗橋站,新北市,中和區,N,1,0,0,新北市中和區景平路2號,24.990549,121.525051,4787.5,4819.57142857143,4712.66666666667,0.295310704960835
110,TpMrt,1,Y10,景平站,新北市,中和區,N,1,0,0,新北市中和區景平路121號,24.991968,121.516553,6719.63333333333,7090.47619047619,5854.33333333333,0.261368427840805
111,TpMrt,1,Y12,中和站,新北市,中和區,N,1,0,0,新北市中和區中山路二段271號,25.001981,121.496052,8981.6,9016.95238095238,8899.11111111111,0.297244737389032
112,TpMrt,1,Y13,橋和站,新北市,中和區,N,1,0,0,新北市中和區板南路430號,25.004413,121.490461,3585.26666666667,4134.42857142857,2303.88888888889,0.192779709552056
113,TpMrt,1,Y14,中原站,新北市,中和區,N,1,0,0,新北市中和區板南路510號,25.00841,121.484159,5004.33333333333,6118.28571428571,2405.11111111111,0.144181709185373
114,TpMrt,1,Y15,板新站,新北市,板橋區,N,1,0,0,新北市板橋區板新路109號,25.014491,121.472212,4912.23333333333,5438.52380952381,3684.22222222222,0.225002883956381
115,TpMrt,1,Y17,新埔民生站,新北市,板橋區,N,1,0,0,新北市板橋區民生路3段70號,25.026125,121.466839,4291.96666666667,4449.90476190476,3923.44444444444,0.274241023928424
116,TpMrt,1,Y19,幸福站,新北市,新莊區,N,1,0,0,新北市新莊區思源路292號,25.050282,121.460216,6853.73333333333,6973.09523809524,6575.22222222222,0.287809077291209
117,TpMrt_TyMrt,1,Y20_A3,新北產業園區站,新北市,新莊區,M,2,0,0,新北市新莊區五工路35號,25.061548,121.459926,7708.36666666667,8090.80952380952,6816,0.265270204236955
3,TyMrt,1,A4,新莊副都心站,新北市,新莊區,N,1,0,0,台一線中山路北側新五路與五工六路間,25.0592476,121.4463191,50.3311827956989,49.8048183700358,51.3166666666667,0.289481817700377
4,TyMrt,1,A5,泰山站,新北市,泰山區,N,1,0,0,新北市泰山區中山路與泰林路交口,25.0532726,121.4395294,52.6469534050179,53.2858083945041,51.1083333333333,0.274012689833463
5,TyMrt,1,A6,泰山貴和站,新北市,泰山區,N,1,0,0,新北市泰山區中山路與貴陽街交口,25.033503,121.4223097,163.815053763441,171.888041909781,144.208333333333,0.247836516771259
6,TyMrt,1,A7,體育大學站,桃園市,龜山區,N,1,0,0,桃園市龜山區文化一路與青山路交口北側,25.041246,121.385434,727.860215053763,736.259457933371,704.8,0.273944750587628
7,TyMrt,1,A8,長庚醫院站,桃園市,龜山區,N,1,0,0,桃園市龜山區文化一路與復興一路交口,25.0600805,121.3709244,1578.67598566308,1702.20487483531,1264.95833333333,0.226456058012701
8,TyMrt,1,A9,林口站,新北市,林口區,N,1,0,0,新北市林口區文化三路與八德路交口,25.0658742,121.3614006,295.80752688172,271.241985068072,358.333333333333,0.341041740028084
9,TyMrt,1,A10,山鼻站,桃園市,蘆竹區,N,1,0,0,桃園市蘆竹區南山路山鼻橋南側,25.0807591,121.2848289,646.177419354839,657.664721751678,616.825,0.269779585492208
10,TyMrt,1,A11,坑口站,桃園市,蘆竹區,N,1,0,0,桃園市蘆竹區坑口村附近,25.086516,121.2664488,375.510394265233,390.972143798231,335.866666666667,0.252691309966208
11,TyMrt,1,A12,機場第一航廈站,桃園市,大園區,N,1,0,0,台灣桃園國際機場第一航廈航站南路下方,25.081746,121.2391751,580.973835125448,612.614687245122,500.266666666667,0.243475111579046
12,TyMrt,1,A13,機場第二航廈站,桃園市,大園區,N,1,0,0,台灣桃園國際機場第二航廈下方,25.07707,121.231885,770.495340501792,813.281698977351,662.5,0.242776466637561
13,TyMrt,1,A14a,機場旅館站,桃園市,大園區,N,1,0,0,台灣桃園國際機場過境旅館附近,25.0692598,121.220939,120.077777777778,135.906644080557,79.5916666666667,0.187754152087864
14,TyMrt,1,A15,大園站,桃園市,大園區,N,1,0,0,國道2號高速公路大園交流道附近,25.0559699,121.2104954,562.36917562724,585.758265888701,503.783333333333,0.252681385803564
15,TyMrt,1,A16,橫山站,桃園市,大園區,N,1,0,0,桃園市大園區橫山社區自強橋附近,25.0366078,121.2157284,136.790681003584,145.164470794906,115.7,0.238563732383665
16,TyMrt,1,A17,領航站,桃園市,大園區,N,1,0,0,高鐵桃園車站特定區東北側,25.0241743,121.2211115,351.088888888889,406.118702553485,211.808333333333,0.170329978287498
17,TyMrt_Thsr,1,A18_Taoyuan,高鐵桃園站,桃園市,中壢區,MH,1,0,1,高鐵桃園車站北側,25.013762,121.214162,861.894623655914,817.627642888512,973.933333333333,0.317505548791121
18,TyMrt,1,A19,桃園體育園區站,桃園市,中壢區,N,1,0,0,高鐵桃園車站特定區西南側,25.001996,121.203495,211.15770609319,207.096053704749,220.65,0.293979414302706
19,TyMrt,1,A20,興南站,桃園市,中壢區,N,1,0,0,桃園市中壢區中豐北路下興南附近,24.980184,121.216266,37.1136200716846,38.0073091160048,35.0416666666667,0.265601580772265
20,TyMrt,1,A21,環北站,桃園市,中壢區,N,1,0,0,桃園市中壢區中豐路與環北路交口,24.967197,121.22113,929.005734767025,934.937323546019,913.475,0.27723263511294
3,Train,1,1010,萬華站,台北市,萬華區,N,0,1,0,台北市萬華區富福里康定路382號,25.0332823,121.4998481,8923.29943443653,9256.34130434783,8043.65277777778,0.245123703117525
4,Train,1,950,五堵站,新北市,汐止區,N,0,1,0,新北市汐止區長安里長安路17號,25.0779696,121.667524,3511.87948610529,3785.16503623188,2776.72222222222,0.215584385532524
5,Train,1,960,汐止站,新北市,汐止區,N,0,1,0,新北市汐止區信望里信義路1號,25.0679525,121.6612198,19952.0646557743,20827.1298913043,17608.7777777778,0.240191956539896
6,Train,1,970,汐科站,新北市,汐止區,N,0,1,0,新北市汐止區大同里大同路二段182號,25.0626721,121.6466498,17413.5350160592,19605.4045289855,11514.0416666667,0.180609164817928
7,Train,1,1030,浮洲站,新北市,板橋區,N,0,1,0,新北市板橋區僑中二街156號,25.004192,121.444737,5354.52925569055,5573.63351449275,4772.40277777778,0.242300971553545
8,Train,1,1040,樹林站,新北市,樹林區,N,0,1,0,新北市樹林區鎮前街112號,24.9913972,121.4244296,30021.2915793884,30044.1903985507,29980.0138888889,0.271657612069761
9,Train,1,1050,南樹林站,新北市,樹林區,N,0,1,0,新北市樹林區東山里中山路二段230號,24.9802026,121.4087031,2135.04541963413,2145.18514492754,2109.48611111111,0.268724457655405
10,Train,1,1060,山佳站,新北市,樹林區,N,0,1,0,新北市樹林區中山里山佳街28號,24.9727283,121.3925439,2793.28396871945,2746.91775362319,2917.125,0.284494033098746
11,Train,1,1070,鶯歌站,新北市,鶯歌區,N,0,1,0,新北市鶯歌區東鶯里文化路68號,24.954492,121.355208,17311.5426267281,17481.9079710145,16864.2222222222,0.264959578699239
12,Train,1,7290,福隆站,新北市,貢寮區,N,0,1,0,新北市貢寮區福隆里福隆街2號,25.0159203,121.9446682,1720.36520737327,1500.90778985507,2316.5,0.348255652746949
13,Train,1,7300,貢寮站,新北市,貢寮區,N,0,1,0,新北市貢寮區貢寮里朝陽街33號,25.0159203,121.9446682,407.268887026952,402.694565217391,420.902777777778,0.274838774269259
14,Train,1,7310,雙溪站,新北市,雙溪區,N,0,1,0,新北市雙溪區新基里朝陽街1號,25.038561,121.866504,1724.6646418098,1664.08423913043,1885.69444444444,0.29327879575799
15,Train,1,7320,牡丹站,新北市,雙溪區,N,0,1,0,新北市雙溪區牡丹里51號,25.0586431,121.8519913,282.690964949029,257.472282608696,351.194444444444,0.330395226899194
16,Train,1,7330,三貂嶺站,新北市,瑞芳區,N,0,1,0,新北市瑞芳區碩仁里魚寮路1號,25.0655744,121.8226327,154.685169669041,122.932065217391,240.986111111111,0.422721154606607
17,Train,1,7331,大華站,新北市,平溪區,N,0,1,0,新北市平溪區南山里六分12之1號,25.049913,121.797543,17.9489177489178,14.8734848484849,26.2638888888889,0.39172047379366
18,Train,1,7332,十分站,新北市,平溪區,N,0,1,0,新北市平溪區十分里十分街51號,25.0409838,121.7749723,3213.12344644603,3102.9509057971,3518.47222222222,0.301616225030429
19,Train,1,7333,望古站,新北市,平溪區,N,0,1,0,新北市平溪區望古里,25.0346149,121.7638065,34.4006074570591,29.8215579710145,46.75,0.354416852521624
20,Train,1,7334,嶺腳站,新北市,平溪區,N,0,1,0,新北市平溪區嶺腳里嶺腳寮22號,25.0302012,121.7479383,58.4694525904203,52.7721014492754,73.6666666666667,0.340546453562373
21,Train,1,7335,平溪站,新北市,平溪區,N,0,1,0,新北市平溪區平溪里中華街12號,25.0255853,121.7400005,1034.35393101522,903.486775362319,1380.59722222222,0.370949169614316
22,Train,1,7350,猴硐站,新北市,瑞芳區,N,0,1,0,新北市瑞芳區光復里柴寮路70號,25.087009,121.827423,1615.52101661779,1468.6759057971,2015.70833333333,0.337699760575238
23,Train,1,7360,瑞芳站,新北市,瑞芳區,N,0,1,0,新北市瑞芳區龍潭里明燈路三段82號,25.1087356,121.8059692,12970.3582949309,13062.1266304348,12755.2916666667,0.2684460525043
24,Train,1,7362,八斗子站,基隆市,中正區,N,0,1,0,基隆市中正區砂子里省道台2線(與新北市瑞芳區交界處、無站房),25.1352871,121.8028626,539.769201228879,471.517210144928,729.041666666667,0.37424618944683
25,Train,1,7380,四腳亭站,新北市,瑞芳區,N,0,1,0,新北市瑞芳區吉慶里中央路65號,25.102804,121.761917,1197.64453288647,1285.76902173913,962.375,0.218365533737395
26,Train,1,900,基隆站,基隆市,仁愛區,N,0,1,0,基隆市仁愛區港西街5號,25.1317072,121.738296,16021.2139715124,15913.6432971015,16338.2777777778,0.276552359651732
27,Train,1,910,三坑站,基隆市,仁愛區,N,0,1,0,基隆市仁愛區德厚里龍安街 206 號,25.1232383,121.7420108,2728.47015081692,2841.3722826087,2427.56944444444,0.2420941259563
28,Train,1,920,八堵站,基隆市,暖暖區,N,0,1,0,基隆市暖暖區八南里八堵路142 號地圖 ,25.1083766,121.7290366,4698.37424940651,4951.59239130435,4025.80555555556,0.232792118316028
29,Train,1,930,七堵站,基隆市,七堵區,N,0,1,0,基隆市七堵區東新街2號,25.0930993,121.7140236,11910.7574361123,12671.7641304348,9865.09722222222,0.225463486386953
30,Train,1,940,百福站,基隆市,七堵區,N,0,1,0,基隆市七堵區堵南里明德三路 1 之 1 號,25.0779332,121.6938105,4989.757191733,5273.8152173913,4229.41666666667,0.230672052627673
31,Train,1,7361,海科館站,基隆市,中正區,N,0,1,0,基隆市中正區長潭里,25.1375568,121.8000871,1316.862065354,1262.98985507246,1465.125,0.311251077373762
32,Train,1,7390,暖暖站,基隆市,暖暖區,N,0,1,0,基隆市暖暖區暖暖里暖暖街 51 號,25.10229,121.74032,745.57170786203,807.956884057971,579.166666666667,0.211027830275791
33,Train,1,1080,桃園站,桃園市,桃園區,N,0,1,0,桃園市桃園區武陵里中正路1號,24.9886541,121.3142952,56715.7471372713,54895.4126811594,61635.8055555556,0.295518814680198
34,Train,1,1090,內壢站,桃園市,中壢區,N,0,1,0,桃園市中壢區中原里中華路一段267號,24.9744162955845,121.257387379737,17659.0270911884,17773.0519927536,17351.0138888889,0.267383732660821
35,Train,1,1100,中壢站,桃園市,中壢區,N,0,1,0,桃園市中壢區石頭里中和路139號,24.9537299,121.2255944,54133.7240957967,50873.2115942029,62924.125,0.316006548432935
36,Train,1,1110,埔心站,桃園市,楊梅區,N,0,1,0,桃園市楊梅區埔心里永美路208號,24.919588,121.183502,11217.4101033375,11443.8173913043,10619.0555555556,0.25737151067214
37,Train,1,1120,楊梅站,桃園市,楊梅區,N,0,1,0,桃園市楊梅區楊梅里大成路256號,24.9143248,121.1464462,10173.2649420472,10155.6179347826,10228.2083333333,0.273455732114764
38,Train,1,1130,富岡站,桃園市,楊梅區,N,0,1,0,桃園市楊梅區富岡里成功路37號,24.934427,121.083067,3457.42445189219,3387.85326086957,3648.375,0.287037962245219
39,Train,1,1140,新富站,桃園市,楊梅區,N,0,1,0,桃園市楊梅區富豐里富全街1號,24.9310643,121.0675937,152.899560117302,152.023731884058,154.958333333333,0.276419253249166
0,TpMrt_Train_Thsr,1,BL07_Y16_1020_Banqiao,板橋站,新北市,板橋區,MTH,2,1,1,新北市板橋區站前路5號,25.0141846,121.4637528,124900.326942233,124551.317610892,125936.005555556,0.282871600854972
1,TpMrt_Train_Thsr,1,BL22_0980_Nangang,南港站,台北市,南港區,MTH,1,1,1,台北市南港區忠孝東路7段380號,25.052035,121.60697,56760.6014918773,59638.9385548027,49404.2944444445,0.240759845676767
2,TpMrt_Train,1,G19_0990,松山站,台北市,松山區,MT,1,1,0,台北市松山區八德路4段742號,25.050118,121.577706,81354.8975352605,86678.622898237,67736.3722222223,0.231021738503067
