Fac_Type,Fac_Name,County,District,Addr,lat,lng
Con_Store,7-ELEVEN中福門市,台北市,中山區,台北市中山區民生東路二段113號,25.058070999999998,121.53155790000001
Con_Store,7-ELEVEN中錦門市,台北市,中山區,台北市中山區中山北路二段98號,25.059896300000002,121.5226656
Con_Store,7-ELEVEN京典門市,台北市,中山區,台北市中山區南京東路三段86號,25.051747199999998,121.5394492
Con_Store,7-ELEVEN京山門市,台北市,中山區,台北市中山區南京東路二段100號,25.0518001,121.5320013
Con_Store,7-ELEVEN京旺門市,台北市,中山區,台北市中山區南京東路一段92號,25.051900500000002,121.52588119999999
Con_Store,7-ELEVEN京江門市,台北市,中山區,台北市中山區南京東路三段91之1號,25.0521478,121.5390652
Con_Store,7-ELEVEN京都門市,台北市,中山區,台北市中山區林森北路411號,25.0597579,121.52566259999999
Con_Store,7-ELEVEN伊東門市,台北市,中山區,台北市中山區伊通街30號,25.0508746,121.53466090000002
Con_Store,7-ELEVEN佳佳門市,台北市,中山區,台北市中山區民生東路二段157號,25.0581224,121.53585530000001
Con_Store,7-ELEVEN元大門市,台北市,中山區,台北市中山區遼寧街110號,25.0525531,121.5419221
Con_Store,7-ELEVEN六條通門市,台北市,中山區,台北市中山區林森北路107巷15號,25.0503204,121.5256788
Con_Store,7-ELEVEN勝權門市,台北市,中山區,台北市中山區民權東路二段26號,25.062364499999997,121.5288989
Con_Store,7-ELEVEN原中門市,台北市,中山區,台北市中山區中原街121號1樓、新生北路三段3巷41號,25.0632242,121.5290744
Con_Store,7-ELEVEN合江門市,台北市,中山區,台北市中山區合江街60號,25.055966,121.53906119999999
Con_Store,7-ELEVEN吉安門市,台北市,中山區,台北市中山區吉林路365號367號農安街137號,25.0646299,121.530001
Con_Store,7-ELEVEN吉林門市,台北市,中山區,台北市中山區吉林路209號,25.060244600000004,121.53037320000001
Con_Store,7-ELEVEN吉鑫門市,台北市,中山區,台北市中山區南京東路二段11號,25.0523055,121.52845190000001
Con_Store,7-ELEVEN國京門市,台北市,中山區,台北市中山區南京東路三段21號,25.052312899999997,121.537779
Con_Store,7-ELEVEN國學門市,台北市,中山區,台北市中山區長春路182號,25.0546082,121.53452060000001
Con_Store,7-ELEVEN國旺門市,台北市,中山區,台北市中山區南京東路一段132巷8號,25.0513075,121.5270438
Con_Store,7-ELEVEN國賓門市,台北市,中山區,台北市中山區中山北路二段77巷3號5號,25.0576206,121.52323349999999
Con_Store,7-ELEVEN圓武門市,台北市,中山區,台北市中山區吉林路28號,25.0515967,121.5299176
Con_Store,7-ELEVEN基河門市,台北市,中山區,台北市中山區樂群二路206號,25.079656600000003,121.5592693
Con_Store,7-ELEVEN大吉門市,台北市,中山區,台北市中山區吉林路97號99號,25.055873499999997,121.530293
Con_Store,7-ELEVEN大永門市,台北市,中山區,台北市中山區明水路581巷15號,25.080164,121.55094309999998
Con_Store,7-ELEVEN天津門市,台北市,中山區,台北市中山區天津街65號,25.0517269,121.52357009999999
Con_Store,7-ELEVEN威克門市,台北市,中山區,台北市中山區南京東路三段208號,25.051673,121.54319170000001
Con_Store,7-ELEVEN實踐大門市,台北市,中山區,台北市中山區大直街70號,25.084573199999998,121.54472859999998
Con_Store,7-ELEVEN崑崙門市,台北市,中山區,台北市中山區中山北路一段105巷13號,25.0507867,121.52334809999999
Con_Store,7-ELEVEN建欣門市,台北市,中山區,台北市中山區建國北路二段13號,25.053754,121.537282
Con_Store,7-ELEVEN建錦門市,台北市,中山區,台北市中山區建國北路二段127號,25.0599515,121.5373436
Con_Store,7-ELEVEN建龍門市,台北市,中山區,台北市中山區龍江路239號,25.0582971,121.5408346
Con_Store,7-ELEVEN復北門市,台北市,中山區,台北市中山區復興北路164號,25.0535134,121.5437149
Con_Store,7-ELEVEN復錦門市,台北市,中山區,台北市中山區復興北路348號,25.0599777,121.54393
Con_Store,7-ELEVEN撫順門市,台北市,中山區,台北市中山區中山北路三段23-6號,25.064854399999998,121.5224971
Con_Store,7-ELEVEN敬群門市,台北市,中山區,台北市中山區樂群二路154號,25.079694500000002,121.5571768
Con_Store,7-ELEVEN新大直門市,台北市,中山區,台北市中山區北安路621巷48號,25.08273680000001,121.54652639999999
Con_Store,7-ELEVEN新寶門市,台北市,中山區,台北市中山區建國北路一段136號,25.0510208,121.5363887
Con_Store,7-ELEVEN新晴光門市,台北市,中山區,台北市中山區雙城街30號,25.0659868,121.52417539999999
Con_Store,7-ELEVEN新西華門市,台北市,中山區,台北市中山區民生東路三段31號,25.0580663,121.539111
Con_Store,7-ELEVEN新錦祥門市,台北市,中山區,台北市中山區錦西街16號,25.060269899999998,121.5213021
Con_Store,7-ELEVEN明水門市,台北市,中山區,台北市中山區明水路636號樂群三路1號,25.0828561,121.5513004
Con_Store,7-ELEVEN明美門市,台北市,中山區,台北市中山區敬業一路130號,25.083627399999997,121.55248200000001
Con_Store,7-ELEVEN春城門市,台北市,中山區,台北市中山區長春路135號135之1號,25.0549555,121.53133989999999
Con_Store,7-ELEVEN春森門市,台北市,中山區,台北市中山區長春路67號,25.0550438,121.52653020000001
Con_Store,7-ELEVEN春龍門市,台北市,中山區,台北市中山區長春路257號,25.054812,121.5406743
Con_Store,7-ELEVEN晶華門市,台北市,中山區,台北市中山區林森北路262號,25.0546858,121.52531110000001
Con_Store,7-ELEVEN晶鑽門市,台北市,中山區,台北市中山區中山北路二段39巷8號,25.0539157,121.52350919999999
Con_Store,7-ELEVEN曾德門市,台北市,中山區,台北市中山區錦州街21-2號,25.0604047,121.52502659999999
Con_Store,7-ELEVEN朱崙門市,台北市,中山區,台北市中山區復興北路56號58號,25.0498082,121.5437519
Con_Store,7-ELEVEN東崙門市,台北市,中山區,台北市中山區八德路二段282號,25.0469199,121.54166599999999
Con_Store,7-ELEVEN松京門市,台北市,中山區,台北市中山區南京東路二段144號,25.05172,121.533965
Con_Store,7-ELEVEN松怡門市,台北市,中山區,台北市中山區民權東路二段146號,25.0622101,121.5340035
Con_Store,7-ELEVEN松盛門市,台北市,中山區,台北市中山區南京東路二段115巷1號,25.0526117,121.53368770000002
Con_Store,7-ELEVEN松運門市,台北市,中山區,台北市中山區松江路101號,25.051150699999997,121.53326070000001
Con_Store,7-ELEVEN松錦門市,台北市,中山區,台北市中山區松江路295號295-1號,25.0610038,121.533381
Con_Store,7-ELEVEN松鑫門市,台北市,中山區,台北市中山區松江路208號,25.0578284,121.53290190000001
Con_Store,7-ELEVEN林北門市,台北市,中山區,台北市中山區民生東路一段46號46-1號,25.0579518,121.52463870000001
Con_Store,7-ELEVEN林安門市,台北市,中山區,台北市中山區林森北路572號,25.064995800000002,121.52553490000001
Con_Store,7-ELEVEN林森北門市,台北市,中山區,台北市中山區林森北路380之1號,25.0616454,121.5255085
Con_Store,7-ELEVEN林森門市,台北市,中山區,台北市中山區林森北路500號,25.061847699999998,121.5254793
Con_Store,7-ELEVEN柯鑫門市,台北市,中山區,台北市中山區中山北路二段11巷3號,25.052823899999996,121.52340359999998
Con_Store,7-ELEVEN森北門市,台北市,中山區,台北市中山區林森北路108號,25.0509333,121.5249159
Con_Store,7-ELEVEN森吉門市,台北市,中山區,台北市中山區林森北路624號626號,25.0673266,121.5255489
Con_Store,7-ELEVEN森泰門市,台北市,中山區,台北市中山區林森北路358號360號,25.057260999999997,121.525287
Con_Store,7-ELEVEN森華門市,台北市,中山區,台北市中山區林森北路587號,25.0660136,121.52582040000001
Con_Store,7-ELEVEN森鑽門市,台北市,中山區,台北市中山區林森北路101號,25.0501796,121.52502279999999
Con_Store,7-ELEVEN榮星門市,台北市,中山區,台北市中山區龍江路322號,25.0649066,121.5407952
Con_Store,7-ELEVEN榮金門市,台北市,中山區,台北市中山區龍江路384巷1號,25.0669049,121.5408774
Con_Store,7-ELEVEN榮鑫門市,台北市,中山區,台北市中山區建國北路三段91號,25.0657115,121.5368739
Con_Store,7-ELEVEN榮鑽門市,台北市,中山區,台北市中山區五常街23號25號民族東路410巷62號,25.064442,121.538082
Con_Store,7-ELEVEN權東門市,台北市,中山區,台北市中山區民權東路三段73號,25.0625794,121.5435745
Con_Store,7-ELEVEN權松門市,台北市,中山區,台北市中山區松江路363號,25.0639734,121.5334334
Con_Store,7-ELEVEN欣旺門市,台北市,中山區,台北市中山區北安路606號,25.0819535,121.54893999999999
Con_Store,7-ELEVEN歡唱門市,台北市,中山區,台北市中山區林森北路310巷10號,25.056120999999997,121.52478049999999
Con_Store,7-ELEVEN民美門市,台北市,中山區,台北市中山區圓山里中山北路三段57號,25.068247500000002,121.52309140000001
Con_Store,7-ELEVEN永明門市,台北市,中山區,台北市中山區明水路397巷7弄25號,25.0781193,121.5494913
Con_Store,7-ELEVEN江東門市,台北市,中山區,台北市中山區長安東路二段43號45-1號,25.0486124,121.53175949999999
Con_Store,7-ELEVEN江陵門市,台北市,中山區,台北市中山區一江街23號,25.053024,121.5316549
Con_Store,7-ELEVEN潤泰門市,台北市,中山區,台北市中山區八德路二段314號,25.047182,121.54280700000001
Con_Store,7-ELEVEN濱江門市,台北市,中山區,台北市中山區龍江路356巷39及41號,25.066155,121.539345
Con_Store,7-ELEVEN直安門市,台北市,中山區,台北市中山區北安路649號,25.084051000000002,121.5491348
Con_Store,7-ELEVEN直福門市,台北市,中山區,台北市中山區樂群三路218號,25.0823188,121.5579616
Con_Store,7-ELEVEN福權門市,台北市,中山區,台北市中山區民權東路二段96號98號,25.0623477,121.5318334
Con_Store,7-ELEVEN稻江門市,台北市,中山區,台北市中山區新生北路三段35號,25.0649652,121.52805490000001
Con_Store,7-ELEVEN統佳門市,台北市,中山區,台北市中山區松江路237號,25.0590059,121.53353940000001
Con_Store,7-ELEVEN美麗華門市,台北市,中山區,台北市中山區北安路839-1號,25.084665,121.557303
Con_Store,7-ELEVEN翔運門市,台北市,中山區,台北市中山區中山北路二段44巷2號,25.054889499999998,121.5213932
Con_Store,7-ELEVEN興復門市,台北市,中山區,台北市中山區興安街112號,25.0559021,121.543122
Con_Store,7-ELEVEN萬濠門市,台北市,中山區,台北市中山區敬業四路1號,25.0815902,121.55851640000002
Con_Store,7-ELEVEN薇美門市,台北市,中山區,台北市中山區敬業三路11號,25.0835286,121.55564270000002
Con_Store,7-ELEVEN行天門市,台北市,中山區,台北市中山區農安街178號180號,25.064548300000002,121.5348399
Con_Store,7-ELEVEN農安門市,台北市,中山區,台北市中山區農安街28-2號,25.0648078,121.5264024
Con_Store,7-ELEVEN金宴門市,台北市,中山區,台北市中山區建國北路二段151巷8號,25.061697100000004,121.5380976
Con_Store,7-ELEVEN金蓬門市,台北市,中山區,台北市中山區民權西路73號,25.063079899999998,121.5198899
Con_Store,7-ELEVEN金鑽門市,台北市,中山區,台北市中山區民權西路66號,25.06260360000001,121.5200647
Con_Store,7-ELEVEN錦北門市,台北市,中山區,台北市中山區錦州街8號,25.0602323,121.5236706
Con_Store,7-ELEVEN錦合門市,台北市,中山區,台北市中山區合江街117號,25.0603401,121.5393178
Con_Store,7-ELEVEN錦捷門市,台北市,中山區,台北市中山區錦州街229號,25.060427899999997,121.5324122
Con_Store,7-ELEVEN錦龍門市,台北市,中山區,台北市中山區龍江路281-1號,25.0601568,121.5408247
Con_Store,7-ELEVEN鑫安江門市,台北市,中山區,台北市中山區長安東路二段178號178-1號,25.048241,121.54069150000001
Con_Store,7-ELEVEN鑫德惠門市,台北市,中山區,台北市中山區德惠街15號,25.066759,121.52600290000001
Con_Store,7-ELEVEN鑫東一門市,台北市,中山區,台北市中山區一江街11號13號,25.0511675,121.531581
Con_Store,7-ELEVEN鑫櫃門市,台北市,中山區,台北市中山區松江路183號183-1號,25.0563979,121.5333247
Con_Store,7-ELEVEN鑫越門市,台北市,中山區,台北市中山區南京西路12巷9號,25.0519111,121.52149820000001
Con_Store,7-ELEVEN鑫錦州門市,台北市,中山區,台北市中山區錦州街263號,25.0604699,121.53499879999998
Con_Store,7-ELEVEN鑫長安門市,台北市,中山區,台北市中山區長安東路一段53巷1之3號,25.04895,121.52636399999999
Con_Store,7-ELEVEN長中門市,台北市,中山區,台北市中山區中山北路二段40-1號,25.054554,121.52246799999999
Con_Store,7-ELEVEN長北門市,台北市,中山區,台北市中山區長春路11號,25.0550572,121.52365079999998
Con_Store,7-ELEVEN長城門市,台北市,中山區,台北市中山區中山北路二段56號,25.0565108,121.5225252
Con_Store,7-ELEVEN長新門市,台北市,中山區,台北市中山區長安東路一段75號,25.0485188,121.52793570000001
Con_Store,7-ELEVEN長松門市,台北市,中山區,台北市中山區松江路65號,25.0491558,121.53318840000001
Con_Store,7-ELEVEN長津門市,台北市,中山區,台北市中山區長安東路一段12號,25.0493898,121.5228662
Con_Store,7-ELEVEN長通門市,台北市,中山區,台北市中山區長安東路二段101號,25.048560000000002,121.5350785
Con_Store,7-ELEVEN麥田門市,台北市,中山區,台北市中山區晴光里中山北路三段47號,25.066614,121.5227165
Con_Store,7-ELEVEN龍京門市,台北市,中山區,台北市中山區龍江路104號,25.0644875,121.5411132
Con_Store,OK亞都店,台北市,中山區,台北市中山區民權東路２段71巷7號,25.0631515,121.53183590000002
Con_Store,OK北安店,台北市,中山區,台北市中山區北安路476號,25.079609,121.545121
Con_Store,OK台北撫順店,台北市,中山區,台北市中山區撫順街21號,25.0636217,121.5205088
Con_Store,OK空軍司令部店,台北市,中山區,台北市中山區北安路387號,25.0814531,121.54102320000001
Con_Store,全家中捷店,台北市,中山區,台北市中山區南京西路16號,25.0524293,121.5205261
Con_Store,全家中興店,台北市,中山區,台北市中山區龍江路201號,25.056279800000002,121.5406666
Con_Store,全家中賓店,台北市,中山區,台北市中山區中山北路二段59之3號,25.05592,121.52302900000001
Con_Store,全家五常店,台北市,中山區,台北市中山區五常街53巷23號1號,25.066737399999997,121.5395513
Con_Store,全家京林店,台北市,中山區,台北市中山區南京東路二段72號1樓,25.0518589,121.5307203
Con_Store,全家京江店,台北市,中山區,台北市中山區一江街22號,25.052658899999997,121.53140520000001
Con_Store,全家京興店,台北市,中山區,台北市中山區復興北路148號,25.0524549,121.5438183
Con_Store,全家京貿店,台北市,中山區,台北市中山區南京東路三段65號,25.0521956,121.53840729999999
Con_Store,全家光華店,台北市,中山區,台北市中山區松江路24之1號,25.047033499999998,121.53275430000001
Con_Store,全家光輝店,台北市,中山區,台北市中山區德惠街34之2號,25.0665616,121.52641470000002
Con_Store,全家台鑫店,台北市,中山區,台北市中山區中山北路二段44號,25.0551548,121.52248429999999
Con_Store,全家合江店,台北市,中山區,台北市中山區合江街87號,25.0592819,121.53928
Con_Store,全家圓山飯店,台北市,中山區,台北市中山區中山北路四段1巷1號,25.078912699999997,121.52651979999999
Con_Store,全家大直店,台北市,中山區,台北市中山區大直街33巷1號,25.0821641,121.54656920000001
Con_Store,全家市民店,台北市,中山區,台北市中山區中山北路一段58號,25.048525,121.52064080000001
Con_Store,全家建國北路店,台北市,中山區,台北市中山區建國北路一段146號,25.060185999999998,121.53759
Con_Store,全家建錦店,台北市,中山區,台北市中山區建國北路二段131號,25.060185999999998,121.53759
Con_Store,全家復林店,台北市,中山區,台北市中山區林森北路149-1,25.051466,121.52543200000001
Con_Store,全家德惠店,台北市,中山區,台北市中山區吉林路448號,25.066656899999998,121.5303436
Con_Store,全家德林店,台北市,中山區,台北市中山區德惠街173號,25.066646,121.5319108
Con_Store,全家撫順店,台北市,中山區,台北市中山區撫順街12之2號,25.0634896,121.52095530000001
Con_Store,全家新北大店,台北市,中山區,台北市中山區錦州街427號,25.0603117,121.54249009999998
Con_Store,全家新北鄰店,台北市,中山區,台北市中山區北安路458巷41弄48號,25.078808,121.546355
Con_Store,全家新南京店,台北市,中山區,台北市中山區龍江路95號,25.0513747,121.5405335
Con_Store,全家新吉原店,台北市,中山區,台北市中山區中原街16號,25.0565165,121.52879479999999
Con_Store,全家新吉林店,台北市,中山區,台北市中山區民權東路二段46號,25.0623585,121.53012859999998
Con_Store,全家新國賓店,台北市,中山區,台北市中山區中山北路二段75-1號,25.0574405,121.52303570000001
Con_Store,全家新復店,台北市,中山區,台北市中山區復興北路514巷35號,25.0660747,121.54269529999999
Con_Store,全家新德城店,台北市,中山區,台北市中山區德惠街16-7號,25.0665771,121.5247074
Con_Store,全家新晴店,台北市,中山區,台北市中山區農安街4-1號,25.0648539,121.5230509
Con_Store,全家新松店,台北市,中山區,台北市中山區松江路330巷33號,25.0612771,121.53165959999998
Con_Store,全家新林森店,台北市,中山區,台北市中山區林森北路630號,25.067559699999997,121.52560919999999
Con_Store,全家新稻江店,台北市,中山區,台北市中山區農安街86號,25.0647448,121.5292794
Con_Store,全家新衡山店,台北市,中山區,台北市中山區通北街111號,25.084304,121.5380032
Con_Store,全家新農店,台北市,中山區,台北市中山區農安街26之3號,25.064715,121.52623100000001
Con_Store,全家日津店,台北市,中山區,台北市中山區天津街47號,25.0501523,121.5231131
Con_Store,全家明水店,台北市,中山區,台北市中山區明水路581巷11號,25.080138199999997,121.5512086
Con_Store,全家春北店,台北市,中山區,台北市中山區長春路410號,25.0544159,121.543749
Con_Store,全家時代廣場店,台北市,中山區,台北市中山區樂群二路265巷20號,40.7558605,-73.9901412
Con_Store,全家本部店,台北市,中山區,台北市中山區長安東路二段99號,25.0485691,121.5349219
Con_Store,全家朱崙店,台北市,中山區,台北市中山區朱崙街67號,25.05006400000001,121.54235030000001
Con_Store,全家松京店,台北市,中山區,台北市中山區松江路122號,25.051451500000002,121.5538895
Con_Store,全家松國店,台北市,中山區,台北市中山區松江路473號,25.0504785,121.5719533
Con_Store,全家松好店,台北市,中山區,台北市中山區松江路61之1號,25.048519,121.53325009999999
Con_Store,全家松平店,台北市,中山區,台北市中山區四平街47號,25.0538194,121.53236159999999
Con_Store,全家松茂店,台北市,中山區,台北市中山區松江路127之1號,24.1843419,120.6948575
Con_Store,全家松農店,台北市,中山區,台北市中山區農安街160號,25.0645895,121.53399070000002
Con_Store,全家林慶店,台北市,中山區,台北市中山區林森北路376號,25.0579751,121.52542720000001
Con_Store,全家林森北路店,台北市,中山區,台北市中山區林森北路119巷49,25.0503888,121.5267831
Con_Store,全家榮星店,台北市,中山區,台北市中山區龍江路352號,25.065860699999998,121.540853
Con_Store,全家樂群店,台北市,中山區,台北市中山區樂群二路186號,25.0796812,121.5585648
Con_Store,全家權勝店,台北市,中山區,台北市中山區松江路400號,25.063809699999997,121.5329558
Con_Store,全家欣欣店,台北市,中山區,台北市中山區長春路100號,25.0547762,121.5279422
Con_Store,全家正義店,台北市,中山區,台北市中山區長安東路一段55號,25.0487812,121.52655449999999
Con_Store,全家民佳店,台北市,中山區,台北市中山區民生東路二段155號,24.9830269,121.5381807
Con_Store,全家民族店,台北市,中山區,台北市中山區民族東路410巷23弄24號,25.066737399999997,121.5395513
Con_Store,全家民權西路店,台北市,中山區,台北市中山區民權西路35號,25.0630765,121.52106850000001
Con_Store,全家永安店,台北市,中山區,台北市中山區北安路630巷7號,25.08286,121.549484
Con_Store,全家江寧店,台北市,中山區,台北市中山區民權東路三段64號,25.062136300000002,121.5426784
Con_Store,全家濱江店,台北市,中山區,台北市中山區建國北路三段111號,25.0664257,121.53607040000001
Con_Store,全家玉林店,台北市,中山區,台北市中山區民生東路一段27巷15號,25.0586922,121.52514009999999
Con_Store,全家直學店,台北市,中山區,台北市中山區大直街11號,25.0809055,121.54651399999999
Con_Store,全家福泰店,台北市,中山區,台北市中山區民生東路一段36號,25.057872399999997,121.5242472
Con_Store,全家美林店,台北市,中山區,台北市中山區新生北路二段62巷38-3號,25.056147,121.52590500000001
Con_Store,全家美華店,台北市,中山區,台北市中山區北安路819之1號,25.084982500000002,121.5561895
Con_Store,全家美麗店,台北市,中山區,台北市中山區樂群二路142號,25.0797383,121.5568824
Con_Store,全家聚葉店,台北市,中山區,台北市中山區中山北路二段137巷34號,25.061608399999997,121.5251465
Con_Store,全家興安店,台北市,中山區,台北市中山區興安街57號,25.0562339,121.54237659999998
Con_Store,全家興德店,台北市,中山區,台北市中山區復興南路一段38號,25.0454432,121.5436916
Con_Store,全家農安店,台北市,中山區,台北市中山區農安街249號,25.0648133,121.53486219999999
Con_Store,全家遼寧店,台北市,中山區,台北市中山區長安東路二段216號,25.0481678,121.5424494
Con_Store,全家金林店,台北市,中山區,台北市中山區林森北路109號,25.0504072,121.5251449
Con_Store,全家金漾店,台北市,中山區,台北市中山區林森北路308號,25.056107,121.52524199999999
Con_Store,全家金磚店,台北市,中山區,台北市中山區雙城街19巷2號,25.0653749,121.52438529999999
Con_Store,全家金通店,台北市,中山區,台北市中山區伊通街58號,25.051522199999997,121.53463329999998
Con_Store,全家錦原店,台北市,中山區,台北市中山區中原街101號,25.0609288,121.5290416
Con_Store,全家錦富店,台北市,中山區,台北市中山區林森北路428號,25.0599931,121.5253817
Con_Store,全家錦林店,台北市,中山區,台北市中山區林森北路399巷10號,25.059193899999997,121.52587700000001
Con_Store,全家錦民店,台北市,中山區,台北市中山區民權東路二段152巷14號,24.9826314,121.54027340000002
Con_Store,全家錦江店,台北市,中山區,台北市中山區錦州街215號,25.0604313,121.53222099999999
Con_Store,全家錦西店,台北市,中山區,台北市中山區錦西街8號,25.060272100000002,121.52183470000001
Con_Store,全家鑫泰店,台北市,中山區,台北市中山區民生東路一段39號,25.0582094,121.52592720000001
Con_Store,全家鑫豐店,台北市,中山區,台北市中山區龍江路356巷72號,25.065893,121.538028
Con_Store,全家鑫通店,台北市,中山區,台北市中山區新生北路一段116號,25.050589399999996,121.527773
Con_Store,全家長春店,台北市,中山區,台北市中山區長春路48號,25.0548182,121.52577099999999
Con_Store,全家長林店,台北市,中山區,台北市中山區林森北路107巷54號,25.049795,121.5267889
Con_Store,全家長通店,台北市,中山區,台北市中山區伊通街108號,25.0541429,121.5347048
Con_Store,全家雙城店,台北市,中山區,台北市中山區雙城街12之1號,25.06454200000001,121.52420900000001
Con_Store,全家雙林店,台北市,中山區,台北市中山區雙城街2之2號,25.0632175,121.5242987
Con_Store,全家馬偕店,台北市,中山區,台北市中山區民生西路29號,25.0578589,121.52119409999999
Con_Store,全家龍京店,台北市,中山區,台北市中山區龍江路102號,25.0526026,121.5403415
Con_Store,萊爾富中山力行店,台北市,中山區,台北市中山區龍江路47號,25.061658899999998,121.5237189
Con_Store,萊爾富中山國賓店,台北市,中山區,台北市中山區中山北路二段65巷6號,25.057745999999998,121.52241289999999
Con_Store,萊爾富中山晶華店,台北市,中山區,台北市中山區林森北路258號,25.054623100000004,121.53735859999999
Con_Store,萊爾富中山榮耀店,台北市,中山區,台北市中山區龍江路333號及331巷1號,25.0631333,121.5410058
Con_Store,萊爾富中山逸仙店,台北市,中山區,台北市中山區中山北路二段48巷7號B1(4號,25.056106,121.5210236
Con_Store,萊爾富中山錦東店,台北市,中山區,台北市中山區錦州街32之1號及32之2號,25.0631333,121.5410058
Con_Store,萊爾富北市中原二店,台北市,中山區,台北市中山區中原街77號,25.059018,121.52899599999999
Con_Store,萊爾富北市中山店,台北市,中山區,台北市中山區中山北路二段137巷2號,25.061658899999998,121.5237189
Con_Store,萊爾富北市大同店,台北市,中山區,台北市中山區中山北路三段40號,25.066611399999996,121.5218904
Con_Store,萊爾富北市山寧店,台北市,中山區,台北市中山區長安東路二段171-7號,25.0483927,121.54201909999999
Con_Store,萊爾富北市山德店,台北市,中山區,台北市中山區德惠街109號,25.066663199999997,121.52957909999999
Con_Store,萊爾富北市山擎店,台北市,中山區,台北市中山區天祥路70號,25.0625508,121.5207487
Con_Store,萊爾富北市山華店,台北市,中山區,台北市中山區長春路208號,25.054623100000004,121.53735859999999
Con_Store,萊爾富北市新喜店,台北市,中山區,台北市中山區德惠街167巷2號,25.066643,121.531805
Con_Store,萊爾富北市民生店,台北市,中山區,台北市中山區民生西路2號,25.057745999999998,121.52241289999999
Con_Store,萊爾富北市永捷店,台北市,中山區,台北市中山區松江路27號,25.047162,121.53323400000001
Con_Store,萊爾富北市長松店,台北市,中山區,台北市中山區松江路50號,25.0480756,121.53271380000001
Con_Store,萊爾富北市馬偕店,台北市,中山區,台北市中山區民生西路3巷2號,25.058140899999998,121.52166799999999
Atm,元大商業銀行,台北市,中山區,台北市中山區中山北路三段47號,25.066614,121.5227165
Atm,元大商業銀行,台北市,中山區,台北市中山區南京東路3段221號,25.0521004,121.5432871
Atm,永豐商業銀行,台北市,中山區,台北市中山區八德路二段234號,25.0463075,121.5404764
Atm,元大商業銀行,台北市,中山區,台北市中山區松江路109號,25.0514533,121.5332659
Atm,元大商業銀行,台北市,中山區,台北市中山區南京東路3段225號,25.0523017,121.5437889
Atm,元大商業銀行,台北市,中山區,台北市中山區松江路139號,25.0551248,121.5332759
Atm,元大商業銀行,台北市,中山區,台北市中山區復興北路420號,25.0627827,121.5438693
Atm,永豐商業銀行,台北市,中山區,台北市中山區八德路2段306號,25.0468732,121.5425549
Atm,永豐商業銀行,台北市,中山區,台北市中山區中山北路二段79號,25.058161,121.523211
Atm,永豐商業銀行,台北市,中山區,台北市中山區林森北路247號,25.0541439,121.5259693
Atm,永豐商業銀行,台北市,中山區,台北市中山區松江路192號,25.0570685,121.5328369
Atm,永豐商業銀行,台北市,中山區,台北市中山區松江路39號,25.047608,121.53323600000002
Atm,永豐商業銀行,台北市,中山區,台北市中山區長安東路一段23號,25.0494821,121.523794
Atm,永豐商業銀行,台北市,中山區,台北市中山區建國北路二段9之1號,25.0532184,121.5371038
Atm,永豐商業銀行,台北市,中山區,台北市中山區八德路二段306號,25.0468732,121.5425549
Atm,永豐商業銀行,台北市,中山區,台北市中山區松江路129號,25.0538007,121.5332901
Atm,永豐商業銀行,台北市,中山區,台北市中山區民權東路三段35號,25.0625841,121.5422193
Atm,聯邦商業銀行,台北市,中山區,台北市中山區民族東路410巷2弄18號,25.0666729,121.537108
Atm,聯邦商業銀行,台北市,中山區,台北市中山區民權東路二段71巷7號,25.0631515,121.53183590000002
Atm,聯邦商業銀行,台北市,中山區,台北市中山區撫順街21號,25.0636217,121.5205088
Atm,聯邦商業銀行,台北市,中山區,台北市中山區明水路649號,25.0830017,121.5508405
Atm,聯邦商業銀行,台北市,中山區,台北市中山區中山北路二段83號,25.0586349,121.5231399
Atm,聯邦商業銀行,台北市,中山區,台北市中山區中山北路2段83號,25.0586349,121.5231399
Atm,中華郵政股份有限公司,台北市,中山區,台北市中山區民族東路17號,25.0699552,121.5254133
Atm,中華郵政股份有限公司,台北市,中山區,台北市中山區中山北路二段(嘉新大樓前)號,25.059418,121.522528
Atm,中華郵政股份有限公司,台北市,中山區,台北市中山區中山北路四段1號,25.0786107,121.5262867
Atm,中華郵政股份有限公司,台北市,中山區,台北市中山區中山北路二段89之2號,25.052405,121.5222584
Atm,聯邦商業銀行,台北市,中山區,台北市中山區北安路476號,25.079609,121.545121
Atm,遠東國際商業銀行,台北市,中山區,台北市中山區農安街12之1號,25.0648571,121.5239985
Atm,遠東國際商業銀行,台北市,中山區,台北市中山區南京東路三段101號,25.052278,121.5394885
Atm,遠東國際商業銀行,台北市,中山區,台北市中山區松江路59號,25.048316,121.533253
Atm,元大商業銀行,台北市,中山區,台北市中山區中山北路2段131號,25.0615739,121.523152
Atm,元大商業銀行,台北市,中山區,台北市中山區中山北路一段59號,25.0500039,121.5219268
Atm,聯邦商業銀行,台北市,中山區,台北市中山區樂群三路218號,25.0823188,121.5579616
Atm,聯邦商業銀行,台北市,中山區,台北市中山區南京東路二段137號,25.0523667,121.5351968
Atm,聯邦商業銀行,台北市,中山區,台北市中山區長春路328號,25.054479,121.5408102
Atm,聯邦商業銀行,台北市,中山區,台北市中山區松江路228號,25.0586327,121.53293159999998
Atm,聯邦商業銀行,台北市,中山區,台北市中山區南京東路2段137號,25.0523667,121.5351968
Atm,遠東國際商業銀行,台北市,中山區,台北市中山區復興北路422號,25.0628204,121.5440169
Atm,遠東國際商業銀行,台北市,中山區,台北市中山區民生東路一段70號,25.0579056,121.5263151
Atm,永豐商業銀行,台北市,中山區,台北市中山區長安東路二段171之1號,25.0483927,121.5420191
Atm,台新國際商業銀行,台北市,中山區,台北市中山區五常街53巷23號,25.0654831,121.5397263
Atm,凱基商業銀行,台北市,中山區,台北市中山區明水路700號,25.0848393,121.5516077
Atm,台新國際商業銀行,台北市,中山區,台北市中山區北安路387號,25.0814531,121.5410232
Atm,台新國際商業銀行,台北市,中山區,台北市中山區明水路581巷11號,25.0801382,121.5512086
Atm,台新國際商業銀行,台北市,中山區,台北市中山區林森北路119巷49號,25.0503888,121.5267831
Atm,台新國際商業銀行,台北市,中山區,台北市中山區伊通街58號,25.0515222,121.53463329999998
Atm,台新國際商業銀行,台北市,中山區,台北市中山區農安街160號,25.0645895,121.53399070000002
Atm,台新國際商業銀行,台北市,中山區,台北市中山區四平街47號,25.0538113,121.5323615
Atm,台新國際商業銀行,台北市,中山區,台北市中山區民生東路一段27巷15號,25.0586922,121.5251401
Atm,台新國際商業銀行,台北市,中山區,台北市中山區長安東路一段55號,25.0487812,121.5265545
Atm,台新國際商業銀行,台北市,中山區,台北市中山區中山北路一段58號,25.048525,121.5206408
Atm,台新國際商業銀行,台北市,中山區,台北市中山區北安路630巷7號,25.08286,121.549484
Atm,台新國際商業銀行,台北市,中山區,台北市中山區松江路24之1號,25.0470335,121.5327543
Atm,台新國際商業銀行,台北市,中山區,台北市中山區南京東路三段65號,25.0521956,121.5384073
Atm,台新國際商業銀行,台北市,中山區,台北市中山區一江街22號,25.0527301,121.531402
Atm,台新國際商業銀行,台北市,中山區,台北市中山區朱崙街67號,25.050064000000006,121.5423503
Atm,台新國際商業銀行,台北市,中山區,台北市中山區德惠街34-2號,25.06655,121.5264644
Atm,永豐商業銀行,台北市,中山區,台北市中山區長春路208號,25.0546056,121.5373396
Atm,凱基商業銀行,台北市,中山區,台北市中山區南京東路三段224號,25.0516611,121.5437483
Atm,永豐商業銀行,台北市,中山區,台北市中山區南京東路三段36號,25.0516952,121.5382629
Atm,永豐商業銀行,台北市,中山區,台北市中山區龍江路407號,25.0661639,121.5412375
Atm,永豐商業銀行,台北市,中山區,台北市中山區德惠街16之5號,25.0666557,121.5240502
Atm,玉山商業銀行,台北市,中山區,台北市中山區敬業三路123號,25.0810846,121.5554643
Atm,玉山商業銀行,台北市,中山區,台北市中山區松江路375號,25.0652324,121.533552
Atm,玉山商業銀行,台北市,中山區,台北市中山區中山北路1段145號,25.0561769,121.52300359999998
Atm,玉山商業銀行,台北市,中山區,台北市中山區撫順街41巷13號,25.0647825,121.5195786
Atm,永豐商業銀行,台北市,中山區,台北市中山區松江路27號,25.0473269,121.5331994
Atm,永豐商業銀行,台北市,中山區,台北市中山區天祥路70號,25.0623835,121.5207833
Atm,永豐商業銀行,台北市,中山區,台北市中山區民生西路3巷2號,25.0584654,121.5216103
Atm,永豐商業銀行,台北市,中山區,台北市中山區民生西路62號,25.0575608,121.5209315
Atm,永豐商業銀行,台北市,中山區,台北市中山區德惠街167巷2號,25.0666833,121.5316262
Atm,凱基商業銀行,台北市,中山區,台北市中山區松江路137號,25.05507,121.5332878
Atm,玉山商業銀行,台北市,中山區,台北市中山區南京東路三段68號,25.0516256,121.538707
Atm,玉山商業銀行,台北市,中山區,台北市中山區民生東路三段49號,25.057948,121.5402101
Atm,玉山商業銀行,台北市,中山區,台北市中山區錦州街276號,25.0602202,121.5349581
Atm,玉山商業銀行,台北市,中山區,台北市中山區天祥路86巷1號,25.0643052,121.520376
Atm,凱基商業銀行,台北市,中山區,台北市中山區中山北路一段109號,25.0510629,121.52244
Atm,凱基商業銀行,台北市,中山區,台北市中山區樂群三路78號,25.0825303,121.5535633
Atm,玉山商業銀行,台北市,中山區,台北市中山區松江路287號,25.0604579,121.533551
Atm,玉山商業銀行,台北市,中山區,台北市中山區松江路111號,25.0514667,121.533252
Atm,玉山商業銀行,台北市,中山區,台北市中山區民權西路48號,25.0625947,121.5205079
Atm,玉山商業銀行,台北市,中山區,台北市中山區復興北路178號,25.0543613,121.5438157
Atm,玉山商業銀行,台北市,中山區,台北市中山區松江路162之1號,25.0553841,121.53279369999998
Atm,台新國際商業銀行,台北市,中山區,台北市中山區林森北路308號,25.056107,121.525242
Atm,華泰商業銀行,台北市,中山區,台北市中山區長安東路二段246號,25.048105,121.5431755
Atm,華泰商業銀行,台北市,中山區,台北市中山區南京東路三段91-3號,25.052203,121.5390229
Atm,華泰商業銀行,台北市,中山區,台北市中山區民權東路二段42號,25.062436,121.5297099
Atm,台灣新光商業銀行,台北市,中山區,台北市中山區明水路600號,25.08144,121.551954
Atm,華泰商業銀行,台北市,中山區,台北市中山區敬業四路33號,25.081010600000006,121.5579204
Atm,瑞興商業銀行,台北市,中山區,台北市中山區民生東路二段57號,25.0581677,121.529601
Atm,匯豐（台灣）商業銀行,台北市,中山區,台北市中山區復興南路一段2號,25.0471223,121.5436349
Atm,匯豐（台灣）商業銀行,台北市,中山區,台北市中山區南京東路二段167號,25.0522629,121.5361525
Atm,瑞興商業銀行,台北市,中山區,台北市中山區南京西路14號,25.0521315,121.520677
Atm,瑞興商業銀行,台北市,中山區,台北市中山區南京西路15號,25.0527485,121.52068359999998
Atm,瑞興商業銀行,台北市,中山區,台北市中山區南京東路二段196號,25.0518735,121.5355491
Atm,瑞興商業銀行,台北市,中山區,台北市中山區長安東路二段110號,25.048121,121.535459
Atm,台灣新光商業銀行,台北市,中山區,台北市中山區長安東路二段100號,25.0483256,121.534998
Atm,台灣新光商業銀行,台北市,中山區,台北市中山區松江路75之1號,25.0497158,121.5331328
Atm,台灣新光商業銀行,台北市,中山區,台北市中山區林森北路554號,25.0641803,121.52550320000002
Atm,台灣新光商業銀行,台北市,中山區,台北市中山區民生東路三段8號,25.0576285,121.5385078
Atm,台灣新光商業銀行,台北市,中山區,台北市中山區南京東路二段123號,25.0522705,121.5340115
Atm,台灣新光商業銀行,台北市,中山區,台北市中山區敬業三路20號,25.0833072,121.5571648
Atm,台灣新光商業銀行,台北市,中山區,台北市中山區松江路162號,25.0554904,121.5328073
Atm,台灣新光商業銀行,台北市,中山區,台北市中山區民權西路11號,25.0629962,121.52183829999998
Atm,台灣新光商業銀行,台北市,中山區,台北市中山區龍江路356巷76號,25.065893,121.5378268
Atm,台灣新光商業銀行,台北市,中山區,台北市中山區中山北路二段63號,25.0565793,121.5231299
Atm,台灣新光商業銀行,台北市,中山區,台北市中山區建國北路一段90號,25.0499573,121.5360159
Atm,台灣新光商業銀行,台北市,中山區,台北市中山區中山北路二段37之1號,25.0534764,121.5228399
Atm,匯豐（台灣）商業銀行,台北市,中山區,台北市中山區松江路266號,25.0594819,121.5329347
Atm,兆豐國際商業銀行,台北市,中山區,台北市中山區樂群二路55號,25.0804887,121.5538967
Atm,兆豐國際商業銀行,台北市,中山區,台北市中山區吉林路100號,25.053138,121.529978
Atm,兆豐國際商業銀行,台北市,中山區,台北市中山區南京東路二段53號,25.0522768,121.5296972
Atm,兆豐國際商業銀行,台北市,中山區,台北市中山區松江路156之1號,25.0545409,121.5329829
Atm,花旗（台灣）商業銀行,台北市,中山區,台北市中山區德惠街9之2號,25.0669305,121.5250017
Atm,兆豐國際商業銀行,台北市,中山區,台北市中山區中山北路二段133號,25.0616344,121.5231538
Atm,兆豐國際商業銀行,台北市,中山區,台北市中山區中山北路二段41號,25.0542879,121.5237975
Atm,兆豐國際商業銀行,台北市,中山區,台北市中山區南京東路三段198號,25.0516234,121.5429086
Atm,兆豐國際商業銀行,台北市,中山區,台北市中山區中山北路二段15號,25.0528549,121.522946
Atm,渣打國際商業銀行,台北市,中山區,台北市中山區南京東路三段168號,25.0515982,121.541522
Atm,渣打國際商業銀行,台北市,中山區,台北市中山區中山北路2段136號,25.0621149,121.5225232
Atm,渣打國際商業銀行,台北市,中山區,台北市中山區明水路676號,25.0838542,121.5510101
Atm,台中商業銀行,台北市,中山區,台北市中山區長春路28號,25.0548603,121.5247406
Atm,匯豐（台灣）商業銀行,台北市,中山區,台北市中山區明水路666號,25.0835451,121.5511729
Atm,京城商業銀行,台北市,中山區,台北市中山區民權東路三段4號,25.0620174,121.5385499
Atm,台灣中小企業銀行,台北市,中山區,台北市中山區長春路17號,25.0551442,121.5238908
Atm,花旗（台灣）商業銀行,台北市,中山區,台北市中山區南京東路二段101號,25.0522776,121.5326151
Atm,台灣中小企業銀行,台北市,中山區,台北市中山區松江路158號,25.0549837,121.532855
Atm,中華郵政股份有限公司,台北市,中山區,台北市中山區中山北路三段181號,25.0725778,121.5248468
Atm,中華郵政股份有限公司,台北市,中山區,台北市中山區北安路630巷10號,25.0826554,121.5498429
Atm,中華郵政股份有限公司,台北市,中山區,台北市中山區民權西路22號,25.0626177,121.5218065
Atm,中華郵政股份有限公司,台北市,中山區,台北市中山區松江路364號,25.0620648,121.5329644
Atm,中華郵政股份有限公司,台北市,中山區,台北市中山區復興北路40號,25.0493989,121.5437189
Atm,中華郵政股份有限公司,台北市,中山區,台北市中山區中山北路一段142號,25.0513614,121.5221118
Atm,中華郵政股份有限公司,台北市,中山區,台北市中山區合江街53號,25.056323000000006,121.5395
Atm,中華郵政股份有限公司,台北市,中山區,台北市中山區北安路518巷14弄18、20號,25.078962,121.545389
Atm,中華郵政股份有限公司,台北市,中山區,台北市中山區北安路409號,25.079796,121.54320990000002
Atm,中華郵政股份有限公司,台北市,中山區,台北市中山區建國北路二段33號,25.0549662,121.537218
Atm,中華郵政股份有限公司,台北市,中山區,台北市中山區長春路129號,25.0549617,121.530679
Atm,中華郵政股份有限公司,台北市,中山區,台北市中山區長安東路二段97號,25.0485868,121.53484679999998
Atm,中華郵政股份有限公司,台北市,中山區,台北市中山區中山北路二段96號,25.059418,121.522528
Atm,中華郵政股份有限公司,台北市,中山區,台北市中山區龍江路335號,25.063197100000004,121.5410122
Atm,中華郵政股份有限公司,台北市,中山區,台北市中山區復興北路210、212號,25.0563272,121.5439148
Atm,中華郵政股份有限公司,台北市,中山區,台北市中山區樂群二路147號,25.0801555,121.5572562
Atm,中華郵政股份有限公司,台北市,中山區,台北市中山區林森北路573號,25.0650542,121.525858
Atm,台灣新光商業銀行,台北市,中山區,台北市中山區北安路780號,25.0849641,121.5537414
Atm,台北市第五信用合作社,台北市,中山區,台北市中山區龍江路266號,25.0603982,121.540574
Atm,台灣新光商業銀行,台北市,中山區,台北市中山區民族東路336號,25.0674465,121.53717759999998
Atm,台北市第五信用合作社,台北市,中山區,台北市中山區吉林路312號,25.0619189,121.5301613
Atm,陽信商業銀行,台北市,中山區,台北市中山區民生東路一段43號,25.0582332,121.5260004
Atm,陽信商業銀行,台北市,中山區,台北市中山區民生東路三段36號,25.057601,121.5405185
Atm,陽信商業銀行,台北市,中山區,台北市中山區吉林路304號,25.0616139,121.5300909
Atm,台灣新光商業銀行,台北市,中山區,台北市中山區南京西路12號,25.0523038,121.5211048
Atm,台灣新光商業銀行,台北市,中山區,台北市中山區建國北路二段13、15號,25.0526471,121.5377311
Atm,台灣新光商業銀行,台北市,中山區,台北市中山區建國北路一段126號,25.0505992,121.5362889
Atm,基隆市第二信用合作社,台北市,中山區,台北市中山區龍江路251號,25.0588496,121.54081940000002
Atm,陽信商業銀行,台北市,中山區,台北市中山區龍江路356巷49號,25.0661501,121.5388753
Atm,板信商業銀行,台北市,中山區,台北市中山區北安路632號,25.082969,121.54918
Atm,板信商業銀行,台北市,中山區,台北市中山區復興北路426、428號,25.0630583,121.54398940000002
Atm,板信商業銀行,台北市,中山區,台北市中山區南京東路三段130號,25.0515925,121.5408301
Atm,板信商業銀行,台北市,中山區,台北市中山區八德路二段188號,25.0462544,121.53866409999998
Atm,高雄銀行,台北市,中山區,台北市中山區長春路145號,25.0550239,121.53224579999998
Atm,台新國際商業銀行,台北市,中山區,台北市中山區雙城街19巷2號,25.0653749,121.5243853
Atm,中國信託商業銀行,台北市,中山區,台北市中山區松江路237號,25.0590059,121.5335394
Atm,中國信託商業銀行,台北市,中山區,台北市中山區中山北路3段47號,25.066614,121.5227165
Atm,中國信託商業銀行,台北市,中山區,台北市中山區中山北路一段105巷13號,25.0507867,121.5233481
Atm,中國信託商業銀行,台北市,中山區,台北市中山區民權東路二段26號,25.0623645,121.5288989
Atm,中國信託商業銀行,台北市,中山區,台北市中山區中原街121號,25.0632149,121.5290765
Atm,中國信託商業銀行,台北市,中山區,台北市中山區樂群二路206號,25.079656600000003,121.5592693
Atm,中國信託商業銀行,台北市,中山區,台北市中山區長春路182號,25.0546082,121.5345206
Atm,中國信託商業銀行,台北市,中山區,台北市中山區中山北路二段75之1號,25.0574659,121.523204
Atm,中國信託商業銀行,台北市,中山區,台北市中山區南京東路三段21號,25.0523129,121.537779
Atm,中國信託商業銀行,台北市,中山區,台北市中山區中山北路二段44巷2號,25.0548895,121.5213932
Atm,中國信託商業銀行,台北市,中山區,台北市中山區林森北路101號,25.0501796,121.5250228
Atm,中國信託商業銀行,台北市,中山區,台北市中山區林森北路587號,25.0660136,121.5258204
Atm,中國信託商業銀行,台北市,中山區,台北市中山區林森北路358號,25.0573219,121.525301
Atm,中國信託商業銀行,台北市,中山區,台北市中山區吉林路28號,25.0515967,121.5299176
Atm,中國信託商業銀行,台北市,中山區,台北市中山區林森北路624號,25.0673266,121.5255489
Atm,中國信託商業銀行,台北市,中山區,台北市中山區林森北路108號,25.0509333,121.5249159
Atm,中國信託商業銀行,台北市,中山區,台北市中山區錦州街21之2號,25.0604572,121.5251182
Atm,中國信託商業銀行,台北市,中山區,台北市中山區復興北路348號,25.0599777,121.54393
Atm,中國信託商業銀行,台北市,中山區,台北市中山區復興北路164號,25.0535134,121.5437149
Atm,中國信託商業銀行,台北市,中山區,台北市中山區中山北路二段39巷8號,25.0539157,121.5235092
Atm,中國信託商業銀行,台北市,中山區,台北市中山區林森北路262號,25.0546858,121.5253111
Atm,中國信託商業銀行,台北市,中山區,台北市中山區南京東路二段144號,25.05172,121.533965
Atm,中國信託商業銀行,台北市,中山區,台北市中山區林森北路380之1號,25.0616454,121.5255085
Atm,中國信託商業銀行,台北市,中山區,台北市中山區林森北路500號,25.0618477,121.5254793
Atm,中國信託商業銀行,台北市,中山區,台北市中山區民權東路二段146號,25.0622101,121.5340035
Atm,中國信託商業銀行,台北市,中山區,台北市中山區民生東路1段46號,25.0579518,121.5246387
Atm,中國信託商業銀行,台北市,中山區,台北市中山區民生東路5段65號,25.0586364,121.5580973
Atm,中國信託商業銀行,台北市,中山區,台北市中山區林森北路572號,25.0649958,121.5255349
Atm,中國信託商業銀行,台北市,中山區,台北市中山區北安路604號,25.081951,121.548997
Atm,中國信託商業銀行,台北市,中山區,台北市中山區松江路208號,25.0578284,121.5329019
Atm,中國信託商業銀行,台北市,中山區,台北市中山區松江路295號,25.0610038,121.533381
Atm,中國信託商業銀行,台北市,中山區,台北市中山區松江路101號,25.0511507,121.5332607
Atm,中國信託商業銀行,台北市,中山區,台北市中山區南京東路二段115巷1號,25.0526117,121.53368770000002
Atm,中國信託商業銀行,台北市,中山區,台北市中山區敬業一路130號,25.0836274,121.552482
Atm,中國信託商業銀行,台北市,中山區,台北市中山區明水路636號,25.0828894,121.5512512
Atm,中國信託商業銀行,台北市,中山區,台北市中山區八德路2段282號,25.0469199,121.541666
Atm,中國信託商業銀行,台北市,中山區,台北市中山區南京東路三段208號,25.051673,121.5431917
Atm,中國信託商業銀行,台北市,中山區,台北市中山區建國北路二段127號,25.0599515,121.5373436
Atm,中國信託商業銀行,台北市,中山區,台北市中山區龍江路238號,25.0586129,121.5405228
Atm,中國信託商業銀行,台北市,中山區,台北市中山區中山北路2段11巷3號,25.0528239,121.52340359999998
Atm,中國信託商業銀行,台北市,中山區,台北市中山區長春路257號,25.054812,121.5406743
Atm,中國信託商業銀行,台北市,中山區,台北市中山區長春路67號,25.0550438,121.5265302
Atm,中國信託商業銀行,台北市,中山區,台北市中山區長春路135號,25.0549495,121.5314667
Atm,中國信託商業銀行,台北市,中山區,台北市中山區民權西路73號,25.0630799,121.5198899
Atm,中國信託商業銀行,台北市,中山區,台北市中山區建國北路二段151巷8號,25.061697100000004,121.5380976
Atm,中國信託商業銀行,台北市,中山區,台北市中山區民權西路66號,25.062603600000006,121.5200647
Atm,中國信託商業銀行,台北市,中山區,台北市中山區中山北路2段40之1號,25.0664677,121.5219233
Atm,中國信託商業銀行,台北市,中山區,台北市中山區長春路11號,25.0550572,121.52365079999998
Atm,中國信託商業銀行,台北市,中山區,台北市中山區長安東路一段75號,25.0485188,121.5279357
Atm,中國信託商業銀行,台北市,中山區,台北市中山區長安東路二段101號,25.04856,121.5350785
Atm,中國信託商業銀行,台北市,中山區,台北市中山區長安東路1段12號,25.0493898,121.5228662
Atm,中國信託商業銀行,台北市,中山區,台北市中山區中山北路二段56號,25.0565108,121.5225252
Atm,中國信託商業銀行,台北市,中山區,台北市中山區松江路65號,25.0491558,121.5331884
Atm,中國信託商業銀行,台北市,中山區,台北市中山區林森北路310巷10號,25.056121,121.5247805
Atm,中國信託商業銀行,台北市,中山區,台北市中山區松江路363號,25.0639734,121.5334334
Atm,中國信託商業銀行,台北市,中山區,台北市中山區龍江路104號,25.0644875,121.5411132
Atm,中國信託商業銀行,台北市,中山區,台北市中山區龍江路281之1號,25.0600607,121.5409281
Atm,中國信託商業銀行,台北市,中山區,台北市中山區錦州街229號,25.0604279,121.5324122
Atm,中國信託商業銀行,台北市,中山區,台北市中山區合江街117號,25.0603401,121.5393178
Atm,中國信託商業銀行,台北市,中山區,台北市中山區錦州街8號,25.0602323,121.5236706
Atm,中國信託商業銀行,台北市,中山區,台北市中山區龍江路356巷39號,25.066155,121.539345
Atm,中國信託商業銀行,台北市,中山區,台北市中山區敬業三路11號,25.0835286,121.55564270000002
Atm,中國信託商業銀行,台北市,中山區,台北市中山區長安東路二段178號,25.0482074,121.5411316
Atm,中國信託商業銀行,台北市,中山區,台北市中山區長安東路一段53巷1之3號,25.04895,121.526364
Atm,中國信託商業銀行,台北市,中山區,台北市中山區一江街12號,25.0513831,121.5313934
Atm,中國信託商業銀行,台北市,中山區,台北市中山區南京西路12巷9號,25.0519111,121.5214982
Atm,中國信託商業銀行,台北市,中山區,台北市中山區中山北路二段68號,25.0569241,121.5225876
Atm,中國信託商業銀行,台北市,中山區,台北市中山區明水路591號,25.0806792,121.5516469
Atm,中國信託商業銀行,台北市,中山區,台北市中山區松江路183號,25.0563979,121.5333247
Atm,中國信託商業銀行,台北市,中山區,台北市中山區錦州街263號,25.0604699,121.53499879999998
Atm,中國信託商業銀行,台北市,中山區,台北市中山區德惠街15號,25.066759,121.5260029
Atm,中國信託商業銀行,台北市,中山區,台北市中山區建國北路一段136號,25.0510208,121.5363887
Atm,中國信託商業銀行,台北市,中山區,台北市中山區錦西街16號,25.0602699,121.5213021
Atm,中國信託商業銀行,台北市,中山區,台北市中山區敬業四路1號,25.0815902,121.55851640000002
Atm,中國信託商業銀行,台北市,中山區,台北市中山區民生東路3段31號,25.0580663,121.539111
Atm,中國信託商業銀行,台北市,中山區,台北市中山區北安路621巷48號,25.082736800000006,121.5465264
Atm,中國信託商業銀行,台北市,中山區,台北市中山區樂群二路154號,25.0796945,121.5571768
Atm,中國信託商業銀行,台北市,中山區,台北市中山區雙城街30號,25.0659868,121.5241754
Atm,中國信託商業銀行,台北市,中山區,台北市中山區農安街28之2號,25.0647999,121.5264079
Atm,中國信託商業銀行,台北市,中山區,台北市中山區中山北路三段23號,25.0648544,121.5224971
Atm,中國信託商業銀行,台北市,中山區,台北市中山區興安街112號,25.0559021,121.543122
Atm,中國信託商業銀行,台北市,中山區,台北市中山區新生北路三段35號,25.0649652,121.5280549
Atm,中國信託商業銀行,台北市,中山區,台北市中山區八德路二段314號,25.047182,121.542807
Atm,中國信託商業銀行,台北市,中山區,台北市中山區民族東路410巷62號,25.0646798,121.5381616
Atm,中國信託商業銀行,台北市,中山區,台北市中山區建國北路三段91號,25.0657115,121.5368739
Atm,中國信託商業銀行,台北市,中山區,台北市中山區龍江路384巷1號,25.0669049,121.5408774
Atm,中國信託商業銀行,台北市,中山區,台北市中山區大直街70號,25.0845732,121.54472859999998
Atm,中國信託商業銀行,台北市,中山區,台北市中山區龍江路322號,25.0649066,121.5407952
Atm,中國信託商業銀行,台北市,中山區,台北市中山區民權東路2段96號,25.0623477,121.5318334
Atm,台新國際商業銀行,台北市,中山區,台北市中山區中山北路二段44號,25.0551548,121.5224843
Atm,台新國際商業銀行,台北市,中山區,台北市中山區復興北路150號,25.0527719,121.5438134
Atm,台新國際商業銀行,台北市,中山區,台北市中山區南京東路二段150號,25.0518685,121.5342522
Atm,台新國際商業銀行,台北市,中山區,台北市中山區市民大道三段2號,25.0452613,121.5312585
Atm,台新國際商業銀行,台北市,中山區,台北市中山區建國北路二段17號,25.0541283,121.5374521
Atm,台新國際商業銀行,台北市,中山區,台北市中山區新生北路一段116號,25.0505894,121.527773
Atm,台新國際商業銀行,台北市,中山區,台北市中山區民生東路一段39號,25.0582094,121.5259272
Atm,台新國際商業銀行,台北市,中山區,台北市中山區雙城街2-2號,25.063175,121.524312
Atm,台新國際商業銀行,台北市,中山區,台北市中山區雙城街12之1號,25.064542000000007,121.524209
Atm,台新國際商業銀行,台北市,中山區,台北市中山區龍江路356巷72號,25.065893,121.538028
Atm,台新國際商業銀行,台北市,中山區,台北市中山區北安路645號,25.0838917,121.5491078
Atm,台新國際商業銀行,台北市,中山區,台北市中山區松江路236號,25.0590598,121.5328451
Atm,台新國際商業銀行,台北市,中山區,台北市中山區濱江街284號,25.071907,121.544785
Atm,台新國際商業銀行,台北市,中山區,台北市中山區濱江街99號,25.0733175,121.53489
Atm,台新國際商業銀行,台北市,中山區,台北市中山區建國北路一段96號,25.0503013,121.536327
Atm,台新國際商業銀行,台北市,中山區,台北市中山區民族東路266號,25.0679892,121.5351481
Atm,台新國際商業銀行,台北市,中山區,台北市中山區濱江街308號,25.0717815,121.5463937
Atm,台新國際商業銀行,台北市,中山區,台北市中山區松江路122號,25.0524582,121.5328065
Atm,台新國際商業銀行,台北市,中山區,台北市中山區樂群二路199號,25.0804505,121.55894209999998
Atm,台新國際商業銀行,台北市,中山區,台北市中山區玉門街1號,25.0704569,121.520461
Atm,台新國際商業銀行,台北市,中山區,台北市中山區民權東路二段144號,25.0620848,121.5339227
Atm,台新國際商業銀行,台北市,中山區,台北市中山區民權東路三段64號,25.0621363,121.5426784
Atm,台新國際商業銀行,台北市,中山區,台北市中山區中原街101號,25.0609288,121.5290416
Atm,台新國際商業銀行,台北市,中山區,台北市中山區林森北路149-1號,25.05148,121.525374
Atm,台新國際商業銀行,台北市,中山區,台北市中山區中原街16號,25.0565165,121.5287948
Atm,台新國際商業銀行,台北市,中山區,台北市中山區錦州街427號,25.0603117,121.54249009999998
Atm,台新國際商業銀行,台北市,中山區,台北市中山區北安路819之1號,25.085005,121.556106
Atm,台新國際商業銀行,台北市,中山區,台北市中山區新生北路二段62巷38-3號,25.056147,121.525905
Atm,台新國際商業銀行,台北市,中山區,台北市中山區伊通街108號,25.0541429,121.5347048
Atm,台新國際商業銀行,台北市,中山區,台北市中山區民生西路29號,25.0578589,121.5211941
Atm,台新國際商業銀行,台北市,中山區,台北市中山區林森北路428號,25.0599931,121.5253817
Atm,台新國際商業銀行,台北市,中山區,台北市中山區中山北路二段137巷34號,25.0616084,121.5251465
Atm,台新國際商業銀行,台北市,中山區,台北市中山區德惠街173號,25.066646,121.5319108
Atm,台新國際商業銀行,台北市,中山區,台北市中山區吉林路448號,25.066711,121.5302321
Atm,台新國際商業銀行,台北市,中山區,台北市中山區林森北路399巷10號,25.0591939,121.525877
Atm,台新國際商業銀行,台北市,中山區,台北市中山區錦西街8號,25.0602893,121.5220956
Atm,台新國際商業銀行,台北市,中山區,台北市中山區錦州街215號,25.0604313,121.532221
Atm,台新國際商業銀行,台北市,中山區,台北市中山區長安東路二段216號,25.0481678,121.5424494
Atm,台新國際商業銀行,台北市,中山區,台北市中山區復興南路一段38號,25.0454432,121.5436916
Atm,台新國際商業銀行,台北市,中山區,台北市中山區撫順街12-2號,25.063489,121.520907
Atm,台新國際商業銀行,台北市,中山區,台北市中山區農安街4-1號,25.0648443,121.5230813
Atm,台新國際商業銀行,台北市,中山區,台北市中山區復興北路514巷35號,25.0660747,121.5426953
Atm,台新國際商業銀行,台北市,中山區,台北市中山區松江路330巷33號,25.0612771,121.53165959999998
Atm,台新國際商業銀行,台北市,中山區,台北市中山區林森北路630號,25.0675597,121.5256092
Atm,台新國際商業銀行,台北市,中山區,台北市中山區龍江路95號,25.0513747,121.5405335
Atm,台新國際商業銀行,台北市,中山區,台北市中山區通北街111號,25.084304,121.5380032
Atm,台新國際商業銀行,台北市,中山區,台北市中山區農安街86號,25.0647448,121.5292794
Atm,台新國際商業銀行,台北市,中山區,台北市中山區農安街26-3號,25.0647867,121.5258998
Atm,中國信託商業銀行,台北市,中山區,台北市中山區伊通街30號,25.0508746,121.53466090000002
Atm,中國信託商業銀行,台北市,中山區,台北市中山區明水路397巷7弄25號,25.0781193,121.5494913
Atm,中國信託商業銀行,台北市,中山區,台北市中山區中山北路3段57號,25.0682475,121.5230914
Atm,中國信託商業銀行,台北市,中山區,台北市中山區林森北路107巷15號,25.0503204,121.5256788
Atm,中國信託商業銀行,台北市,中山區,台北市中山區遼寧街110號,25.0525531,121.5419221
Atm,中國信託商業銀行,台北市,中山區,台北市中山區南京東路一段92號,25.0519005,121.5258812
Atm,中國信託商業銀行,台北市,中山區,台北市中山區南京東路三段86號,25.0517472,121.5394492
Atm,中國信託商業銀行,台北市,中山區,台北市中山區南京東路三段91之1號,25.0521478,121.5390652
Atm,中國信託商業銀行,台北市,中山區,台北市中山區南京東路二段100號,25.0518001,121.5320013
Atm,中國信託商業銀行,台北市,中山區,台北市中山區林森北路411號,25.0597579,121.5256626
Atm,中國信託商業銀行,台北市,中山區,台北市中山區民生東路2段157號,25.0581224,121.5358553
Atm,中國信託商業銀行,台北市,中山區,台北市中山區吉林路365號,25.0649595,121.5305258
Atm,中國信託商業銀行,台北市,中山區,台北市中山區復興南路二段151巷41號,25.0284853,121.5453996
Atm,中國信託商業銀行,台北市,中山區,台北市中山區南京東路二段11號,25.0523055,121.5284519
Atm,中國信託商業銀行,台北市,中山區,台北市中山區吉林路209號,25.060244600000004,121.5303732
Atm,中國信託商業銀行,台北市,中山區,台北市中山區合江街60號,25.055966,121.5390612
Atm,中國信託商業銀行,台北市,中山區,台北市中山區農安街178號,25.0645483,121.5348399
Atm,中國信託商業銀行,台北市,中山區,台北市中山區長安東路二段43號,25.0486124,121.5317595
Atm,中國信託商業銀行,台北市,中山區,台北市中山區復興北路56號,25.0498082,121.5437519
Atm,安泰商業銀行,台北市,中山區,台北市中山區松江路66號,25.0491568,121.5327895
Atm,安泰商業銀行,台北市,中山區,台北市中山區長安東路一段27號,25.0493881,121.5242679
Atm,安泰商業銀行,台北市,中山區,台北市中山區民權東路二段24號,25.0624491,121.5287518
Atm,安泰商業銀行,台北市,中山區,台北市中山區建國北路二段135號,25.060524,121.53755
Atm,中國信託商業銀行,台北市,中山區,台北市中山區中山北路二段106之2號,25.0554944,121.5224776
Atm,中國信託商業銀行,台北市,中山區,台北市中山區明水路638號,25.0830379,121.5512072
Atm,安泰商業銀行,台北市,中山區,台北市中山區農安街25號,25.0650093,121.524561
Atm,日盛國際商業銀行,台北市,中山區,台北市中山區南京東路二段111號,25.052296,121.5333576
Atm,台新國際商業銀行,台北市,中山區,台北市中山區民權東路二段46號,25.0623632,121.5301445
Atm,日盛國際商業銀行,台北市,中山區,台北市中山區松江路72號,25.0495329,121.532725
Atm,日盛國際商業銀行,台北市,中山區,台北市中山區南京東路二段85、87號,25.0522847,121.5318272
Atm,日盛國際商業銀行,台北市,中山區,台北市中山區樂群二路267號,25.0801895,121.5606345
Atm,日盛國際商業銀行,台北市,中山區,台北市中山區南京東路二段38號,25.0518603,121.5295408
Atm,中國信託商業銀行,台北市,中山區,台北市中山區林森南路4號,25.044174,121.52276100000002
Atm,中國信託商業銀行,台北市,中山區,台北市中山區吉林路97號,25.0558735,121.530293
Atm,中國信託商業銀行,台北市,中山區,台北市中山區民生東路二段113號,25.058071,121.5315579
Atm,中國信託商業銀行,台北市,中山區,台北市中山區松江路218號,25.0581227,121.5328252
Atm,中國信託商業銀行,台北市,中山區,台北市中山區民生東路一段58號,25.0579493,121.5252064
Atm,中國信託商業銀行,台北市,中山區,台北市中山區濱江街136號,25.0720359,121.535514
Atm,中國信託商業銀行,台北市,中山區,台北市中山區中山北路二段113號,25.0607349,121.52322
Atm,中國信託商業銀行,台北市,中山區,台北市中山區南京東路一段16號,25.0520293,121.5232592
Atm,中國信託商業銀行,台北市,中山區,台北市中山區復興北路26號,25.0489105,121.5437453
Atm,中國信託商業銀行,台北市,中山區,台北市中山區民生東路3段51號,25.0582379,121.540197
Atm,中國信託商業銀行,台北市,中山區,台北市中山區南京東路二段88號,25.051772600000003,121.5311411
Atm,高雄銀行,台北市,中山區,台北市中山區敬業一路97號,25.082980600000006,121.5518919
Atm,國泰世華商業銀行,台北市,中山區,台北市中山區松江路50號,25.0481797,121.5326638
Atm,國泰世華商業銀行,台北市,中山區,台北市中山區民生西路2號,25.0577564,121.5224387
Atm,國泰世華商業銀行,台北市,中山區,台北市中山區德惠街109號,25.0666976,121.5295641
Atm,國泰世華商業銀行,台北市,中山區,台北市中山區中山北路三段40號,25.0671544,121.521804
Atm,國泰世華商業銀行,台北市,中山區,台北市中山區中原街77號,25.0590182,121.5289826
Atm,國泰世華商業銀行,台北市,中山區,台北市中山區中山北路二段137巷2號,25.0616509,121.5237028
Atm,國泰世華商業銀行,台北市,中山區,台北市中山區錦州街32之2號,25.0601178,121.5249207
Atm,國泰世華商業銀行,台北市,中山區,台北市中山區龍江路333號,25.0631333,121.5410058
Atm,國泰世華商業銀行,台北市,中山區,台北市中山區中山北路二段48巷7號,25.0558645,121.5213975
Atm,國泰世華商業銀行,台北市,中山區,台北市中山區林森北路258號,25.0544811,121.5253041
Atm,國泰世華商業銀行,台北市,中山區,台北市中山區中山北路二段65巷6號,25.057033,121.52384
Atm,國泰世華商業銀行,台北市,中山區,台北市中山區龍江路47號,25.0493518,121.5405322
Atm,國泰世華商業銀行,台北市,中山區,台北市中山區民權西路72號,25.062611800000006,121.5195281
Atm,國泰世華商業銀行,台北市,中山區,台北市中山區南京西路16號,25.0521912,121.5221371
Atm,國泰世華商業銀行,台北市,中山區,台北市中山區民生西路47號,25.0578695,121.52064540000002
Atm,國泰世華商業銀行,台北市,中山區,台北市中山區民生東路一段55號,25.0581853,121.5262217
Atm,國泰世華商業銀行,台北市,中山區,台北市中山區興安街55號,25.0562621,121.5418459
Atm,國泰世華商業銀行,台北市,中山區,台北市中山區吉林路413號,25.066481600000003,121.5305348
Atm,國泰世華商業銀行,台北市,中山區,台北市中山區建國北路一段48號,25.047841,121.536194
Atm,國泰世華商業銀行,台北市,中山區,台北市中山區長春路258巷6號,25.054135,121.538794
Atm,國泰世華商業銀行,台北市,中山區,台北市中山區松江路318號,25.060655800000006,121.532867
Atm,國泰世華商業銀行,台北市,中山區,台北市中山區林森北路561號,25.0645712,121.5258155
Atm,國泰世華商業銀行,台北市,中山區,台北市中山區龍江路15號,25.0474464,121.5404968
Atm,國泰世華商業銀行,台北市,中山區,台北市中山區中山北路二段59巷45號,25.056022100000003,121.5245846
Atm,國泰世華商業銀行,台北市,中山區,台北市中山區北安路655號,25.0844525,121.5491528
Atm,國泰世華商業銀行,台北市,中山區,台北市中山區北安路588巷8號,25.080963,121.549282
Atm,國泰世華商業銀行,台北市,中山區,台北市中山區林森北路575-1號,25.0650983,121.5258321
Atm,國泰世華商業銀行,台北市,中山區,台北市中山區松江路400號,25.0638097,121.5329558
Atm,華南商業銀行,台北市,中山區,台北市中山區中山北路三段22號,25.0646128,121.5215978
Atm,華南商業銀行,台北市,中山區,台北市中山區樂群三路56號,25.0824242,121.5527381
Atm,華南商業銀行,台北市,中山區,台北市中山區長安東路一段18號,25.0491987,121.5235927
Atm,國泰世華商業銀行,台北市,中山區,台北市中山區民生東路二段2號,25.0578589,121.5279419
Atm,國泰世華商業銀行,台北市,中山區,台北市中山區合江街137號,25.0616114,121.539347
Atm,國泰世華商業銀行,台北市,中山區,台北市中山區吉林路213號,25.0604993,121.5303892
Atm,國泰世華商業銀行,台北市,中山區,台北市中山區民生東路三段6號,25.057593,121.538125
Atm,國泰世華商業銀行,台北市,中山區,台北市中山區敬業三路22號,25.0834821,121.556296
Atm,國泰世華商業銀行,台北市,中山區,台北市中山區植福路200號,25.0835422,121.5595566
Atm,國泰世華商業銀行,台北市,中山區,台北市中山區南京東路三段132號,25.0515352,121.540962
Atm,國泰世華商業銀行,台北市,中山區,台北市中山區南京東路二段132號,25.051731,121.533697
Atm,第一商業銀行,台北市,中山區,台北市中山區明水路588號,25.0807033,121.5520412
Atm,合作金庫商業銀行,台北市,中山區,台北市中山區民生東路3段77號,25.0579924,121.5437888
Atm,合作金庫商業銀行,台北市,中山區,台北市中山區南京東路二段85號,25.0522847,121.5318272
Atm,合作金庫商業銀行,台北市,中山區,台北市中山區民權東路三段58號,25.0620914,121.5423087
Atm,合作金庫商業銀行,台北市,中山區,台北市中山區民權東路3段58號,25.0620914,121.5423087
Atm,合作金庫商業銀行,台北市,中山區,台北市中山區松江路152號,25.0542414,121.5328673
Atm,合作金庫商業銀行,台北市,中山區,台北市中山區松江路219號,25.0574769,121.5334697
Atm,合作金庫商業銀行,台北市,中山區,台北市中山區南京東路二段2號,25.051848100000004,121.5281047
Atm,第一商業銀行,台北市,中山區,台北市中山區中山北路二段61號,25.0561769,121.52300359999998
Atm,合作金庫商業銀行,台北市,中山區,台北市中山區民生東路二段125號,25.058108,121.532133
Atm,合作金庫商業銀行,台北市,中山區,台北市中山區長安東路一段9號,25.0498061,121.5224323
Atm,國泰世華商業銀行,台北市,中山區,台北市中山區民權東路一段72號,25.0625013,121.52515590000002
Atm,國泰世華商業銀行,台北市,中山區,台北市中山區松江路316號,25.0604614,121.53282
Atm,國泰世華商業銀行,台北市,中山區,台北市中山區林森北路372號,25.0579411,121.5253536
Atm,國泰世華商業銀行,台北市,中山區,台北市中山區松江路126號,25.0526933,121.5327187
Atm,合作金庫商業銀行,台北市,中山區,台北市中山區南京東路二段71號,25.0522473,121.5307648
Atm,合作金庫商業銀行,台北市,中山區,台北市中山區中山北路二段92號,25.0588322,121.5223675
Atm,合作金庫商業銀行,台北市,中山區,台北市中山區南京東路一段98號,25.0518739,121.526173
Atm,合作金庫商業銀行,台北市,中山區,台北市中山區長春路201號,25.0549699,121.538265
Atm,合作金庫商業銀行,台北市,中山區,台北市中山區松江路87號,25.0504526,121.5332062
Atm,合作金庫商業銀行,台北市,中山區,台北市中山區中山北路二段89之4號,25.0588993,121.5231381
Atm,第一商業銀行,台北市,中山區,台北市中山區南京東路二段125號,25.052322,121.534423
Atm,第一商業銀行,台北市,中山區,台北市中山區南京東路三段103號,25.052252,121.539542
Atm,第一商業銀行,台北市,中山區,台北市中山區民生東路二段161、163號,25.0581591,121.5298264
Atm,國泰世華商業銀行,台北市,中山區,台北市中山區吉林路26巷34號,25.0513892,121.5288223
Atm,第一商業銀行,台北市,中山區,台北市中山區復興南路一段36-10號,25.0457469,121.5436551
Atm,第一商業銀行,台北市,中山區,台北市中山區長安東路一段22號,25.0488944,121.5250362
Atm,第一商業銀行,台北市,中山區,台北市中山區南京東路三段131號,25.052388,121.5407293
Atm,第一商業銀行,台北市,中山區,台北市中山區民權西路53號,25.0631546,121.5205767
Atm,第一商業銀行,台北市,中山區,台北市中山區南京東路二段8號,25.0519049,121.5285979
Atm,台灣銀行,台北市,中山區,台北市中山區松江路80號,25.0500167,121.5327754
Atm,台灣銀行,台北市,中山區,台北市中山區松江路115號,25.051675,121.5332634
Atm,台灣銀行,台北市,中山區,台北市中山區林森北路577號,25.0656514,121.5259112
Atm,台灣土地銀行,台北市,中山區,台北市中山區樂群二路289號,25.080249,121.5605207
Atm,第一商業銀行,台北市,中山區,台北市中山區松江路309號,25.0617229,121.5334777
Atm,台灣土地銀行,台北市,中山區,台北市中山區朱崙街20號,25.0498459,121.5394583
Atm,第一商業銀行,台北市,中山區,台北市中山區吉林路136號,25.0556863,121.5300654
Atm,台灣土地銀行,台北市,中山區,台北市中山區長春路156號,25.0546888,121.5319799
Atm,台灣土地銀行,台北市,中山區,台北市中山區長安東路2段52號,25.0483529,121.5325303
Atm,台灣土地銀行,台北市,中山區,台北市中山區南京東路3段70號,25.051755,121.5389392
Atm,台灣土地銀行,台北市,中山區,台北市中山區民權西路26號,25.0625739,121.5216202
Atm,台灣土地銀行,台北市,中山區,台北市中山區中山北路2段46號,25.0554944,121.5224776
Atm,台灣土地銀行,台北市,中山區,台北市中山區復興北路234號,25.057314,121.5439074
Atm,台灣土地銀行,台北市,中山區,台北市中山區北安路305號,25.078916,121.538794
Atm,國泰世華商業銀行,台北市,中山區,台北市中山區北安路798號,25.084709,121.555612
Atm,上海商業儲蓄銀行,台北市,中山區,台北市中山區民生東路二段149號,25.058166,121.53529740000002
Atm,國泰世華商業銀行,台北市,中山區,台北市中山區民生東路二段141號,25.0581654,121.53381609999998
Atm,上海商業儲蓄銀行,台北市,中山區,台北市中山區民權西路69號,25.063077300000003,121.5199937
Atm,上海商業儲蓄銀行,台北市,中山區,台北市中山區中山北路二段155號,25.0622478,121.5229545
Atm,國泰世華商業銀行,台北市,中山區,台北市中山區松江路328號,25.0610299,121.532853
Atm,台北富邦商業銀行,台北市,中山區,台北市中山區明水路602號,25.0815271,121.5517866
Atm,台北富邦商業銀行,台北市,中山區,台北市中山區中山北路二段162號,25.0632225,121.5222899
Atm,台北富邦商業銀行,台北市,中山區,台北市中山區松江路367號,25.064444,121.533568
Atm,上海商業儲蓄銀行,台北市,中山區,台北市中山區松江路89號,25.0505503,121.5332233
Atm,上海商業儲蓄銀行,台北市,中山區,台北市中山區長春路143號,25.055021,121.532186
Atm,上海商業儲蓄銀行,台北市,中山區,台北市中山區南京東路一段46號,25.0519526,121.5244071
Atm,國泰世華商業銀行,台北市,中山區,台北市中山區長安東路二段99號,25.0485691,121.5349219
Atm,國泰世華商業銀行,台北市,中山區,台北市中山區龍江路201號,25.0562798,121.5406666
Atm,國泰世華商業銀行,台北市,中山區,台北市中山區大直街33巷1號,25.0821721,121.5465688
Atm,國泰世華商業銀行,台北市,中山區,台北市中山區民生東路二段155號,25.0581259,121.53579340000002
Atm,國泰世華商業銀行,台北市,中山區,台北市中山區松江路136號,25.0530242,121.5327761
Atm,國泰世華商業銀行,台北市,中山區,台北市中山區樂群二路186號,25.0798869,121.5584274
Atm,國泰世華商業銀行,台北市,中山區,台北市中山區天津街47號,25.0501523,121.5231131
Atm,台北富邦商業銀行,台北市,中山區,台北市中山區復興北路6號,25.0479138,121.5437049
Atm,台北富邦商業銀行,台北市,中山區,台北市中山區建國北路二段238號,25.0614587,121.53660259999998
Atm,國泰世華商業銀行,台北市,中山區,台北市中山區民生東路二段176號,25.0576527,121.5358163
Atm,國泰世華商業銀行,台北市,中山區,台北市中山區南京東路一段9號,25.0525475,121.5232747
Atm,國泰世華商業銀行,台北市,中山區,台北市中山區明水路589號,25.0805159,121.55174
Atm,台灣銀行,台北市,中山區,台北市中山區中山北路一段150號,25.0519042,121.5222668
Atm,台北富邦商業銀行,台北市,中山區,台北市中山區中山北路二段50號,25.0560492,121.5222517
Atm,台北富邦商業銀行,台北市,中山區,台北市中山區民生東路三段75號,25.058184,121.543883
Atm,國泰世華商業銀行,台北市,中山區,台北市中山區民生東路二段166號,25.0576924,121.5340899
Atm,國泰世華商業銀行,台北市,中山區,台北市中山區長安東路二段117號,25.0485791,121.5357428
Atm,台北富邦商業銀行,台北市,中山區,台北市中山區民權東路三段37號,25.0625914,121.5423132
Atm,國泰世華商業銀行,台北市,中山區,台北市中山區北安路534之1號,25.0796312,121.5468085
Atm,國泰世華商業銀行,台北市,中山區,台北市中山區南京東路三段225號,25.0523017,121.5437889
Atm,台北富邦商業銀行,台北市,中山區,台北市中山區南京東路二段139號,25.0522322,121.5356187
Atm,台北富邦商業銀行,台北市,中山區,台北市中山區南京東路二段90號,25.0517536,121.5311831
Atm,台北富邦商業銀行,台北市,中山區,台北市中山區建國北路二段196號,25.0600809,121.53652959999998
Atm,台北富邦商業銀行,台北市,中山區,台北市中山區松江路207號,25.0571884,121.5333608
Atm,台北富邦商業銀行,台北市,中山區,台北市中山區松江路200號,25.0573022,121.5328316
Atm,台北富邦商業銀行,台北市,中山區,台北市中山區長安東路一段36號,25.048577,121.5265346
Atm,國泰世華商業銀行,台北市,中山區,台北市中山區林森北路376號,25.0579751,121.5254272
Atm,國泰世華商業銀行,台北市,中山區,台北市中山區松江路61之1號,25.0604209,121.5334537
Atm,國泰世華商業銀行,台北市,中山區,台北市中山區松江路127之1號,25.0533741,121.53324750000002
Atm,國泰世華商業銀行,台北市,中山區,台北市中山區松江路473號,25.066791,121.5335301
Atm,國泰世華商業銀行,台北市,中山區,台北市中山區建國北路二段131號,25.060186,121.53759
Atm,國泰世華商業銀行,台北市,中山區,台北市中山區建國北路一段146號,25.051265,121.536316
Atm,國泰世華商業銀行,台北市,中山區,台北市中山區林森北路107巷54號,25.0498218,121.52679340000002
Atm,國泰世華商業銀行,台北市,中山區,台北市中山區林森北路109號,25.0504072,121.5251449
Atm,國泰世華商業銀行,台北市,中山區,台北市中山區大直街11號,25.0809055,121.546514
Atm,國泰世華商業銀行,台北市,中山區,台北市中山區長春路100號,25.0547762,121.5279422
Atm,國泰世華商業銀行,台北市,中山區,台北市中山區長春路48號,25.0548182,121.525771
Atm,國泰世華商業銀行,台北市,中山區,台北市中山區南京東路二段72號,25.0518589,121.5307203
Atm,國泰世華商業銀行,台北市,中山區,台北市中山區合江街87號,25.059306600000006,121.5393352
Atm,國泰世華商業銀行,台北市,中山區,台北市中山區民權西路35號,25.0631147,121.52120159999998
Atm,國泰世華商業銀行,台北市,中山區,台北市中山區長春路410號,25.0544159,121.543749
Atm,國泰世華商業銀行,台北市,中山區,台北市中山區農安街249號,25.0648133,121.5348622
Atm,國泰世華商業銀行,台北市,中山區,台北市中山區德惠街16號,25.0665771,121.5247074
Atm,國泰世華商業銀行,台北市,中山區,台北市中山區龍江路352號,25.0658607,121.540853
Atm,國泰世華商業銀行,台北市,中山區,台北市中山區民生東路一段36號,25.0579837,121.52435590000002
Atm,國泰世華商業銀行,台北市,中山區,台北市中山區建國北路三段111號,25.0664257,121.5360704
Atm,國泰世華商業銀行,台北市,中山區,台北市中山區龍江路102號,25.0526026,121.5403415
Atm,國泰世華商業銀行,台北市,中山區,台北市中山區民權東路二段152巷14號,25.0611749,121.5349805
Atm,國泰世華商業銀行,台北市,中山區,台北市中山區南京東路2段26號,25.0518649,121.5290636
Atm,國泰世華商業銀行,台北市,中山區,台北市中山區興安街57號,25.0562339,121.54237659999998
Atm,國泰世華商業銀行,台北市,中山區,台北市中山區中山北路二段75-1號,25.0574405,121.5230357
Atm,國泰世華商業銀行,台北市,中山區,台北市中山區樂群二路265巷20號,25.0804391,121.5602242
Atm,國泰世華商業銀行,台北市,中山區,台北市中山區樂群二路142號,25.0797383,121.5568824
Atm,國泰世華商業銀行,台北市,中山區,台北市中山區北安路458巷41弄48號,25.078808,121.546355
Atm,彰化商業銀行,台北市,中山區,台北市中山區林森北路609號,25.0662752,121.5258494
Atm,彰化商業銀行,台北市,中山區,台北市中山區大直街62巷3號,25.082827,121.546098
Atm,彰化商業銀行,台北市,中山區,台北市中山區中山北路二段57號,25.0557045,121.52300590000002
Atm,彰化商業銀行,台北市,中山區,台北市中山區中山北路2段57號,25.0557045,121.52300590000002
Atm,彰化商業銀行,台北市,中山區,台北市中山區北安路536號,25.0794775,121.5475739
Atm,彰化商業銀行,台北市,中山區,台北市中山區松江路261號,25.0597206,121.5334672
Atm,彰化商業銀行,台北市,中山區,台北市中山區長安東路一段23-1號,25.0494533,121.5237572
Atm,華南商業銀行,台北市,中山區,台北市中山區德惠街7-1號,25.0667738,121.5236607
Atm,華南商業銀行,台北市,中山區,台北市中山區民生東路二段143號,25.0581624,121.5345251
Atm,華南商業銀行,台北市,中山區,台北市中山區南京東路二段160號,25.05173,121.534454
Atm,華南商業銀行,台北市,中山區,台北市中山區中山北路二段112號,25.0607259,121.5227606
Atm,彰化商業銀行,台北市,中山區,台北市中山區北安路589號,25.081941,121.548614
Atm,彰化商業銀行,台北市,中山區,台北市中山區八德路二段201號,25.0467317,121.5393168
Atm,華南商業銀行,台北市,中山區,台北市中山區八德路二段205號,25.0468445,121.539871
Atm,華南商業銀行,台北市,中山區,台北市中山區松江路146號,25.0534929,121.5327711
Atm,彰化商業銀行,台北市,中山區,台北市中山區中山北路二段111號,25.060177,121.523203
Atm,華南商業銀行,台北市,中山區,台北市中山區南京東路三段217號,25.0520992,121.5430852
Atm,彰化商業銀行,台北市,中山區,台北市中山區南京東路二段98號,25.0517523,121.5316562
Atm,華南商業銀行,台北市,中山區,台北市中山區樂群2路199號,25.0804505,121.55894209999998
Atm,華南商業銀行,台北市,中山區,台北市中山區松江路170巷5號,25.0561143,121.5323259
Con_Store,7-ELEVEN中愛門市,台北市,中正區,台北市中正區寧波東街17號,25.033101000000002,121.52027679999999
Con_Store,7-ELEVEN中樂門市,台北市,中正區,台北市中正區延平南路47號,25.04499460000001,121.51047949999999
Con_Store,7-ELEVEN中航門市,台北市,中正區,台北市中正區林森南路12號,25.0425552,121.52255890000002
Con_Store,7-ELEVEN中華電門市,台北市,中正區,台北市中正區信義路一段21-3號,25.0365637,121.52333
Con_Store,7-ELEVEN丹陽門市,台北市,中正區,台北市中正區杭州南路一段83號,25.039056100000003,121.52552050000001
Con_Store,7-ELEVEN仁金門市,台北市,中正區,台北市中正區仁愛路二段39號39-1號,25.038475,121.5286169
Con_Store,7-ELEVEN兒醫門市,台北市,中正區,台北市中正區青島西路7號,25.044930899999997,121.518194
Con_Store,7-ELEVEN八德門市,台北市,中正區,台北市中正區臨沂街1號,25.0434584,121.53097849999999
Con_Store,7-ELEVEN北車門市,台北市,中正區,台北市中正區忠孝西路一段49號,25.046521300000002,121.5172446
Con_Store,7-ELEVEN千成門市,台北市,中正區,台北市中正區林森南路4號,25.0437516,121.5229098
Con_Store,7-ELEVEN千翔門市,台北市,中正區,台北市中正區許昌街17號,25.0458258,121.51682690000001
Con_Store,7-ELEVEN南昌門市,台北市,中正區,台北市中正區南昌路一段67號69號,25.03104,121.517508
Con_Store,7-ELEVEN南海門市,台北市,中正區,台北市中正區南海路50號,25.0320073,121.51521709999999
Con_Store,7-ELEVEN博源門市,台北市,中正區,台北市中正區思源街16號,25.013968,121.53012509999999
Con_Store,7-ELEVEN博美門市,台北市,中正區,台北市中正區武昌街一段45號,25.0442046,121.5111993
Con_Store,7-ELEVEN古亭門市,台北市,中正區,台北市中正區汀州路二段210號,25.0223503,121.52369540000001
Con_Store,7-ELEVEN台大門市,台北市,中正區,台北市中正區林森南路53號55號,25.040170800000002,121.5221779
Con_Store,7-ELEVEN同州門市,台北市,中正區,台北市中正區同安街62號,25.0233968,121.5210435
Con_Store,7-ELEVEN國圖門市,台北市,中正區,台北市中正區中山南路20號,25.036731,121.51903300000001
Con_Store,7-ELEVEN大埔門市,台北市,中正區,台北市中正區和平西路二段152號152之1號154號154之1號,25.0329678,121.5055321
Con_Store,7-ELEVEN大永博門市,台北市,中正區,台北市中正區博愛路97號,25.043067,121.51164399999999
Con_Store,7-ELEVEN寧波門市,台北市,中正區,台北市中正區寧波西街3號,25.0315267,121.51875890000001
Con_Store,7-ELEVEN德金門市,台北市,中正區,台北市中正區八德路一段29號,25.044116199999998,121.531357
Con_Store,7-ELEVEN忠孝東門市,台北市,中正區,台北市中正區忠孝東路一段72號76號,25.044427300000002,121.5238636
Con_Store,7-ELEVEN忠泰門市,台北市,中正區,台北市中正區忠孝西路一段78號,25.046979399999998,121.51372590000001
Con_Store,7-ELEVEN忠聯門市,台北市,中正區,台北市中正區忠孝東路二段100號,25.0426448,121.5311129
Con_Store,7-ELEVEN慶陽門市,台北市,中正區,台北市中正區衡陽路93號,25.0423139,121.5092031
Con_Store,7-ELEVEN捷戰門市,台北市,中正區,台北市中正區忠孝西路一段50-1號,25.0460756,121.51586670000002
Con_Store,7-ELEVEN掬華門市,台北市,中正區,台北市中正區中華路二段407號,25.026016199999997,121.50827269999999
Con_Store,7-ELEVEN新南門市,台北市,中正區,台北市中正區新生南路一段126-7號,25.0371229,121.5325096
Con_Store,7-ELEVEN新廈門門市,台北市,中正區,台北市中正區廈門街42號46號,25.02566400000001,121.51741270000001
Con_Store,7-ELEVEN新愛國門市,台北市,中正區,台北市中正區延平南路177號,25.0344879,121.5076071
Con_Store,7-ELEVEN新文華門市,台北市,中正區,台北市中正區廈門街77號77之1號,25.024669699999997,121.51759070000001
Con_Store,7-ELEVEN新格蘭門市,台北市,中正區,台北市中正區衡陽路27號,25.0424069,121.512841
Con_Store,7-ELEVEN新紹南門市,台北市,中正區,台北市中正區信義路一段13-1號,25.036523100000004,121.5226838
Con_Store,7-ELEVEN新羅福門市,台北市,中正區,台北市中正區羅斯福路三段80號82號,25.0219837,121.52635790000001
Con_Store,7-ELEVEN新雲門市,台北市,中正區,台北市中正區三愛里連雲街81號,25.034321399999996,121.5302571
Con_Store,7-ELEVEN晉江門市,台北市,中正區,台北市中正區和平西路一段26號,25.0266078,121.5207325
Con_Store,7-ELEVEN杭信門市,台北市,中正區,台北市中正區信義路二段15號,25.035217499999998,121.52534909999999
Con_Store,7-ELEVEN東成門市,台北市,中正區,台北市中正區延平南路129巷3號,25.0381759,121.5100804
Con_Store,7-ELEVEN欣漢華門市,台北市,中正區,台北市中正區中華路一段41號,25.044923999999998,121.509441
Con_Store,7-ELEVEN汀州門市,台北市,中正區,台北市中正區汀州路一段127號129號,25.028075,121.50955800000001
Con_Store,7-ELEVEN漢慶門市,台北市,中正區,台北市中正區漢口街一段82號,25.045104600000002,121.51206499999999
Con_Store,7-ELEVEN濟新門市,台北市,中正區,台北市中正區濟南路二段50號,25.0402629,121.53121189999999
Con_Store,7-ELEVEN牯嶺門市,台北市,中正區,台北市中正區廈門街99巷19-2號,25.0239768,121.51881399999999
Con_Store,7-ELEVEN瑞德門市,台北市,中正區,台北市中正區新生南路一段170巷14之3號,25.034191600000003,121.53101809999998
Con_Store,7-ELEVEN紹興門市,台北市,中正區,台北市中正區紹興北街37號,25.045473899999998,121.52554270000002
Con_Store,7-ELEVEN統全門市,台北市,中正區,台北市中正區汀州路三段249號,25.0136689,121.534345
Con_Store,7-ELEVEN統新門市,台北市,中正區,台北市中正區臨沂街27巷10號,25.040810600000004,121.5314078
Con_Store,7-ELEVEN統聯門市,台北市,中正區,台北市中正區忠孝東路二段130-2號130-3號,25.0421845,121.5318386
Con_Store,7-ELEVEN羅亭門市,台北市,中正區,台北市中正區羅斯福路二段68號,25.0273496,121.52194009999998
Con_Store,7-ELEVEN羅昌門市,台北市,中正區,台北市中正區南昌路二段206號,25.0240379,121.52431999999999
Con_Store,7-ELEVEN羅館門市,台北市,中正區,台北市中正區羅斯福路三段316巷16號,25.015454000000002,121.53235409999999
Con_Store,7-ELEVEN臨沂門市,台北市,中正區,台北市中正區文祥里臨沂街74號76號,25.0345844,121.5278
Con_Store,7-ELEVEN興信鑫門市,台北市,中正區,台北市中正區館前路59號,25.044830100000002,121.5151514
Con_Store,7-ELEVEN興忠門市,台北市,中正區,台北市中正區紹興北街3號,25.0447417,121.52533500000001
Con_Store,7-ELEVEN英雄館門市,台北市,中正區,台北市中正區長沙街一段20號,25.0402858,121.508698
Con_Store,7-ELEVEN華山門市,台北市,中正區,台北市中正區忠孝東路一段138號,25.044064199999998,121.5255183
Con_Store,7-ELEVEN華慶門市,台北市,中正區,台北市中正區中華路一段59之16號,25.0413395,121.5085343
Con_Store,7-ELEVEN萬光門市,台北市,中正區,台北市中正區中華路二段157號,25.031141899999998,121.50425259999999
Con_Store,7-ELEVEN萬翔門市,台北市,中正區,台北市中正區公園路13號,25.045625199999996,121.517455
Con_Store,7-ELEVEN警廣門市,台北市,中正區,台北市中正區廣州街10-2號10-3號10-4部分號,25.03556660000001,121.50801829999999
Con_Store,7-ELEVEN軍總門市,台北市,中正區,台北市中正區汀州路三段129號,25.016357100000004,121.5306538
Con_Store,7-ELEVEN重南門市,台北市,中正區,台北市中正區武昌街一段1-2號,25.0441669,121.51352800000001
Con_Store,7-ELEVEN金山門市,台北市,中正區,台北市中正區金山南路一段108號,25.035393,121.52728259999999
Con_Store,7-ELEVEN鑫公信門市,台北市,中正區,台北市中正區信陽街2-1號,25.044586499999998,121.5167517
Con_Store,7-ELEVEN鑫台北門市,台北市,中正區,台北市中正區黎明里忠孝西路一段35號,25.046132999999998,121.51872409999999
Con_Store,7-ELEVEN鑫國語門市,台北市,中正區,台北市中正區南昌路一段135號,25.0296601,121.5185077
Con_Store,7-ELEVEN鑫大孝門市,台北市,中正區,台北市中正區黎明里重慶南路一段1-1號,25.046882699999998,121.5134018
Con_Store,7-ELEVEN鑫杭門市,台北市,中正區,台北市中正區杭州南路一段23號,25.042143399999997,121.52642809999999
Con_Store,7-ELEVEN鑫泉州門市,台北市,中正區,台北市中正區汀州路一段285號,25.0263615,121.5137938
Con_Store,7-ELEVEN鑫華福門市,台北市,中正區,台北市中正區漢口街1段36號,25.04484,121.510995
Con_Store,7-ELEVEN鑫衡陽門市,台北市,中正區,台北市中正區衡陽路6號,25.042208,121.513777
Con_Store,7-ELEVEN鑫重寧門市,台北市,中正區,台北市中正區寧波西街86號,25.029844699999998,121.51590619999999
Con_Store,7-ELEVEN鑫館門市,台北市,中正區,台北市中正區汀州路三段269號,25.0125702,121.5354337
Con_Store,7-ELEVEN開博門市,台北市,中正區,台北市中正區開封街一段40號42號,25.04589630000001,121.5122892
Con_Store,7-ELEVEN青島門市,台北市,中正區,台北市中正區青島東路4號,25.0437361,121.52129620000001
Con_Store,OK中正三元店,台北市,中正區,台北市中正區和平西路２段70巷15弄3號,25.0282552,121.51127340000002
Con_Store,OK台北廈門店,台北市,中正區,台北市中正區廈門街113巷17號,25.0234824,121.5195926
Con_Store,OK台北福和店,台北市,中正區,台北市中正區羅斯福路３段244巷7-1號,25.016894,121.530768
Con_Store,OK外交部店,台北市,中正區,台北市中正區凱達格蘭大道2號,25.03871860000001,121.5162155
Con_Store,OK汀州路店,台北市,中正區,台北市中正區汀州路３段109號,25.016837699999996,121.5299739
Con_Store,OK華山店,台北市,中正區,台北市中正區紹興北街8-1號,25.0453246,121.52526090000002
Con_Store,全家亞慶店,台北市,中正區,台北市中正區忠孝西路一段50號,25.0462675,121.5157136
Con_Store,全家兆豐店,台北市,中正區,台北市中正區忠孝東路二段93號,25.043059200000002,121.5308264
Con_Store,全家公館店,台北市,中正區,台北市中正區汀州路三段251號,25.013642,121.53441299999999
Con_Store,全家凱撒店,台北市,中正區,台北市中正區忠孝西路一段38號,25.046206299999998,121.516263
Con_Store,全家北傑店,台北市,中正區,台北市中正區忠孝西路一段47號,25.0469277,121.5162929
Con_Store,全家北車店,台北市,中正區,台北市中正區忠孝西路一段45號,25.046391699999997,121.5179443
Con_Store,全家南機場店,台北市,中正區,台北市中正區中華路二段311巷1號,25.0283966,121.50574209999999
Con_Store,全家南陽店,台北市,中正區,台北市中正區信陽街15號,25.044802,121.5162199
Con_Store,全家博愛店,台北市,中正區,台北市中正區博愛路63號,24.991035800000002,121.42604709999999
Con_Store,全家台六宿舍店,台北市,中正區,台北市中正區徐州路2之2號,25.04099,121.52150290000002
Con_Store,全家台大醫院店,台北市,中正區,台北市中正區中山南路7號,25.0402741,121.5191591
Con_Store,全家和鄰店,台北市,中正區,台北市中正區和平西路一段82號,25.0263509,121.5186511
Con_Store,全家和醫店,台北市,中正區,台北市中正區延平南路159號,25.0352858,121.5077574
Con_Store,全家善導寺店,台北市,中正區,台北市中正區忠孝東路一段9號,25.041608800000002,121.5265853
Con_Store,全家地下街店,台北市,中正區,台北市中正區市民大道一段100號地下街159號,25.048704,121.515045
Con_Store,全家大孝店,台北市,中正區,台北市中正區愛國東路112號,25.0326488,121.5213509
Con_Store,全家富陽店,台北市,中正區,台北市中正區襄陽路7號,25.0435038,121.5159429
Con_Store,全家寶慶店,台北市,中正區,台北市中正區延平南路111號,25.041816,121.50958100000001
Con_Store,全家慶陽店,台北市,中正區,台北市中正區重慶南路一段89號,24.9325029,121.552953
Con_Store,全家摩天店,台北市,中正區,台北市中正區許昌街26號,25.045412300000002,121.5164168
Con_Store,全家教育大學店,台北市,中正區,台北市中正區愛國西路1號,25.0356043,121.5142953
Con_Store,全家文盛店,台北市,中正區,台北市中正區汀州路三段173號,25.0150382,121.53250279999999
Con_Store,全家文祥店,台北市,中正區,台北市中正區杭州南路一段147號,25.0359633,121.5246081
Con_Store,全家新仟囍店,台北市,中正區,台北市中正區館前路36號,25.0446152,121.51479909999999
Con_Store,全家新廈門店,台北市,中正區,台北市中正區汀州路二段38號,25.0252771,121.5176064
Con_Store,全家新德店,台北市,中正區,台北市中正區八德路一段43巷2號,25.0443907,121.5315762
Con_Store,全家新惠安店,台北市,中正區,台北市中正區中華路二段307巷46號,25.029412699999998,121.5064301
Con_Store,全家新東門店,台北市,中正區,台北市中正區信義路一段1號,25.0382225,121.5193082
Con_Store,全家新衡陽店,台北市,中正區,台北市中正區衡陽路77號,25.0423439,121.51104099999999
Con_Store,全家新龍口店,台北市,中正區,台北市中正區汀州路一段244號,25.027152899999997,121.5103578
Con_Store,全家林森南路店,台北市,中正區,台北市中正區林森南路57,25.0399069,121.52213880000001
Con_Store,全家水源店,台北市,中正區,台北市中正區汀州路三段261號,25.012841899999998,121.53523030000001
Con_Store,全家漢盛店,台北市,中正區,台北市中正區漢口街一段18號,25.045138,121.51439350000001
Con_Store,全家福昌店,台北市,中正區,台北市中正區福州街10號,25.0293938,121.5197814
Con_Store,全家羅安店,台北市,中正區,台北市中正區羅斯福路二段140號,25.0257847,121.5229646
Con_Store,全家羅斯店,台北市,中正區,台北市中正區羅斯福路二段62號,25.028110899999998,121.52194399999999
Con_Store,全家衡慶店,台北市,中正區,台北市中正區衡陽路7號,25.042420899999996,121.5137697
Con_Store,全家西站店,台北市,中正區,台北市中正區懷寧街7之1號,25.046214499999998,121.5143012
Con_Store,全家郡王店,台北市,中正區,台北市中正區延平南路68號,25.0450793,121.5102432
Con_Store,全家重慶店,台北市,中正區,台北市中正區重慶南路一段58號,25.043901,121.51310600000001
Con_Store,全家金安店,台北市,中正區,台北市中正區羅斯福路三段8號,23.988719699999997,120.6917096
Con_Store,全家金門店,台北市,中正區,台北市中正區汀州路二段216號,24.444467899999996,118.3261033
Con_Store,全家開封店,台北市,中正區,台北市中正區開封街一段41號,25.046128,121.51255
Con_Store,全家館中店,台北市,中正區,台北市中正區羅斯福路三段316巷8弄1號,25.015791500000002,121.5326324
Con_Store,全家高鐵一店,台北市,中正區,台北市中正區北平西路3號,25.047701999999997,121.5173735
Con_Store,全家高鐵二店,台北市,中正區,台北市中正區北平西路3號,24.112082,120.6157727
Con_Store,全家鴻啟店,台北市,中正區,台北市中正區忠孝西路一段100號,25.047133,121.51261070000001
Con_Store,全家齊東店,台北市,中正區,台北市中正區濟南路二段3-7號,25.041608800000002,121.5265853
Con_Store,萊爾富北市古亭店,台北市,中正區,台北市中正區辛亥路一段17巷2號及19號,25.019143300000003,121.5280183
Con_Store,萊爾富北市台大店,台北市,中正區,台北市中正區常德街1號,25.0415652,121.51719979999999
Con_Store,萊爾富北市和平店,台北市,中正區,台北市中正區延平南路210號,25.034759100000002,121.5074742
Con_Store,萊爾富北市正光店,台北市,中正區,台北市中正區市民大道三段8號,25.045058899999997,121.53190990000002
Con_Store,萊爾富北市正台店,台北市,中正區,台北市中正區常德街1號,25.04312130000001,121.517752
Con_Store,萊爾富北市正寶店,台北市,中正區,台北市中正區寶慶路35號,25.041617300000002,121.5103238
Con_Store,萊爾富北市正忠店,台北市,中正區,台北市中正區梅花里８鄰忠孝東路一段３５號,25.0444909,121.5255533
Con_Store,萊爾富北市正慶店,台北市,中正區,台北市中正區衡陽路103號,25.042264399999997,121.50909650000001
Con_Store,萊爾富北市正東店,台北市,中正區,台北市中正區紹興南街4之12號,25.0433429,121.5247006
Con_Store,萊爾富北市正童店,台北市,中正區,台北市中正區中山南路8號,25.044230399999996,121.5188189
Con_Store,萊爾富北市秋葉原店,台北市,中正區,台北市中正區八德路一段82巷10號,25.043704,121.5320165
Con_Store,萊爾富北市高院店,台北市,中正區,台北市中正區博愛路127號,25.0385743,121.51132379999999
Atm,元大商業銀行,台北市,中正區,台北市中正區忠孝東路二段88號,25.0430627,121.5292847
Atm,元大商業銀行,台北市,中正區,台北市中正區衡陽路42號,25.042172,121.512362
Atm,元大商業銀行,台北市,中正區,台北市中正區南昌路一段83、85、87號,25.030553,121.517855
Atm,永豐商業銀行,台北市,中正區,台北市中正區市民大道三段2號,25.0452613,121.5312585
Atm,元大商業銀行,台北市,中正區,台北市中正區開封街1段2號,25.0458208,121.514517
Atm,元大商業銀行,台北市,中正區,台北市中正區忠孝東路1段85號,25.044247,121.526592
Atm,元大商業銀行,台北市,中正區,台北市中正區南海路1號,25.0328082,121.5172395
Atm,元大商業銀行,台北市,中正區,台北市中正區重慶南路1段86號,25.041934,121.513307
Atm,元大商業銀行,台北市,中正區,台北市中正區寶慶路69號,25.0419947,121.5090188
Atm,永豐商業銀行,台北市,中正區,台北市中正區重慶南路二段51號,25.031284,121.5148909
Atm,永豐商業銀行,台北市,中正區,台北市中正區南昌路一段110號,25.0301187,121.5178953
Atm,永豐商業銀行,台北市,中正區,台北市中正區八德路一段1號,25.0433045,121.5292957
Atm,永豐商業銀行,台北市,中正區,台北市中正區博愛路17號,25.0456865,121.5115366
Atm,永豐商業銀行,台北市,中正區,台北市中正區重慶南路一段2號,25.0469076,121.5128924
Atm,永豐商業銀行,台北市,中正區,台北市中正區博愛路57號,25.044354,121.511627
Atm,聯邦商業銀行,台北市,中正區,台北市中正區紹興北街8-1號,25.0453246,121.52526090000002
Atm,聯邦商業銀行,台北市,中正區,台北市中正區羅斯福路3段244巷7-1號,25.016894,121.530768
Atm,聯邦商業銀行,台北市,中正區,台北市中正區羅斯福路三段272號,25.0167533,121.5319406
Atm,中華郵政股份有限公司,台北市,中正區,台北市中正區中華路一段65號,25.040866,121.508384
Atm,中華郵政股份有限公司,台北市,中正區,台北市中正區忠孝東路一段2號,25.0451025,121.5200305
Atm,中華郵政股份有限公司,台北市,中正區,台北市中正區開封街一段45號,25.0461375,121.5124217
Atm,中華郵政股份有限公司,台北市,中正區,台北市中正區福州街14號,25.0287244,121.5187299
Atm,中華郵政股份有限公司,台北市,中正區,台北市中正區忠孝西路一段120號,25.0473639,121.51175320000002
Atm,中華郵政股份有限公司,台北市,中正區,台北市中正區重慶南路一段122號,25.0403593,121.5122878
Atm,聯邦商業銀行,台北市,中正區,台北市中正區和平西路二段70巷15弄3號,25.0282552,121.51127340000002
Atm,遠東國際商業銀行,台北市,中正區,台北市中正區永綏街8-14號,25.042991,121.511026
Atm,遠東國際商業銀行,台北市,中正區,台北市中正區寶慶路32號,25.0414776,121.5089709
Atm,遠東國際商業銀行,台北市,中正區,台北市中正區羅斯福路一段40號,25.0311623,121.5191489
Atm,遠東國際商業銀行,台北市,中正區,台北市中正區信義路二段135號,25.034211300000006,121.528058
Atm,元大商業銀行,台北市,中正區,台北市中正區漢口街一段45號,25.0452964,121.5126058
Atm,元大商業銀行,台北市,中正區,台北市中正區新生南路1段148號,25.0353365,121.5322777
Atm,遠東國際商業銀行,台北市,中正區,台北市中正區襄陽路1號,25.0434967,121.5164542
Atm,遠東國際商業銀行,台北市,中正區,台北市中正區忠孝東路一段112號,25.0441414,121.5251401
Atm,遠東國際商業銀行,台北市,中正區,台北市中正區重慶南路一段86號,25.043099,121.512984
Atm,聯邦商業銀行,台北市,中正區,台北市中正區信義路二段101號,25.0342812,121.5276635
Atm,遠東國際商業銀行,台北市,中正區,台北市中正區羅斯福路三段50號,25.022713,121.52555
Atm,星展（台灣）商業銀行,台北市,中正區,台北市中正區忠孝東路一段85號,25.044247,121.526592
Atm,台新國際商業銀行,台北市,中正區,台北市中正區汀州路三段109號,25.0168377,121.5299739
Atm,台新國際商業銀行,台北市,中正區,台北市中正區凱達格蘭大道2號,25.038718600000006,121.5162155
Atm,台新國際商業銀行,台北市,中正區,台北市中正區廈門街113巷17號,25.0234824,121.5195926
Atm,台新國際商業銀行,台北市,中正區,台北市中正區忠孝西路一段47號,25.046883,121.5169607
Atm,台新國際商業銀行,台北市,中正區,台北市中正區延平南路159號,25.0352858,121.5077574
Atm,台新國際商業銀行,台北市,中正區,台北市中正區林森南路57號,25.0399069,121.5221388
Atm,台新國際商業銀行,台北市,中正區,台北市中正區和平西路一段82號,25.0263509,121.5186511
Atm,台新國際商業銀行,台北市,中正區,台北市中正區懷寧街7之7號,25.0462145,121.5143012
Atm,永豐商業銀行,台北市,中正區,台北市中正區濟南路二段39號,25.0408021,121.5299791
Atm,玉山商業銀行,台北市,中正區,台北市中正區區羅斯福路四段1號,25.0148296,121.534228
Atm,玉山商業銀行,台北市,中正區,台北市中正區南昌路二段220號,25.023862,121.524495
Atm,玉山商業銀行,台北市,中正區,台北市中正區羅斯福路四段1號,25.0153096,121.5341073
Atm,永豐商業銀行,台北市,中正區,台北市中正區北平西路3號,25.047702,121.5173735
Atm,玉山商業銀行,台北市,中正區,台北市中正區仁愛路一段1號,25.0395902,121.5195326
Atm,玉山商業銀行,台北市,中正區,台北市中正區永綏街5號,25.043193,121.511074
Atm,玉山商業銀行,台北市,中正區,台北市中正區濟南路二段46號,25.04035,121.5309396
Atm,凱基商業銀行,台北市,中正區,台北市中正區博愛路35號,25.045007,121.511562
Atm,玉山商業銀行,台北市,中正區,台北市中正區羅斯福路四段60號,25.014756,121.533986
Atm,玉山商業銀行,台北市,中正區,台北市中正區武昌街一段77號,25.0442584,121.5094986
Atm,中華郵政股份有限公司,台北市,中正區,台北市中正區中山南路21之1號,25.037230800000003,121.5174577
Atm,華泰商業銀行,台北市,中正區,台北市中正區新生南路1段6號,25.043846,121.532698
Atm,瑞興商業銀行,台北市,中正區,台北市中正區和平西路二段54號,25.0288228,121.5123828
Atm,瑞興商業銀行,台北市,中正區,台北市中正區重慶南路一段64號,25.043717,121.513079
Atm,台灣新光商業銀行,台北市,中正區,台北市中正區信義路2段27號,25.035023,121.525719
Atm,台灣新光商業銀行,台北市,中正區,台北市中正區重慶南路一段115號,25.042589000000003,121.513358
Atm,台灣新光商業銀行,台北市,中正區,台北市中正區忠孝西路一段50號,25.046222,121.51583
Atm,台灣新光商業銀行,台北市,中正區,台北市中正區忠孝西路一段66號,25.045944100000003,121.5153112
Atm,兆豐國際商業銀行,台北市,中正區,台北市中正區許昌街42號,25.0453942,121.5154618
Atm,兆豐國際商業銀行,台北市,中正區,台北市中正區羅斯福路二段9號,25.0289115,121.5213572
Atm,兆豐國際商業銀行,台北市,中正區,台北市中正區忠孝東路二段123號,25.0429162,121.5323606
Atm,全國農業金庫,台北市,中正區,台北市中正區館前路71號,25.0439943,121.5151871
Atm,兆豐國際商業銀行,台北市,中正區,台北市中正區衡陽路91號,25.0422999,121.5103
Atm,兆豐國際商業銀行,台北市,中正區,台北市中正區福州街16號,25.0285517,121.5183277
Atm,花旗（台灣）商業銀行,台北市,中正區,台北市中正區新生南路一段158號,25.0347341,121.5324467
Atm,高雄銀行,台北市,中正區,台北市中正區博愛路38號,25.0458337,121.5111264
Atm,兆豐國際商業銀行,台北市,中正區,台北市中正區濟南路一段2-2號,25.0426814,121.5201116
Atm,兆豐國際商業銀行,台北市,中正區,台北市中正區忠孝東路二段95號,25.0430355,121.5310135
Atm,兆豐國際商業銀行,台北市,中正區,台北市中正區武昌街一段58號,25.044053,121.510943
Atm,渣打國際商業銀行,台北市,中正區,台北市中正區信義路2段147號,25.034114,121.528512
Atm,匯豐（台灣）商業銀行,台北市,中正區,台北市中正區仁愛路二段2號,25.0380775,121.525339
Atm,花旗（台灣）商業銀行,台北市,中正區,台北市中正區襄陽路8號,25.043357800000006,121.5135797
Atm,台灣中小企業銀行,台北市,中正區,台北市中正區重慶南路一段72號,25.043396,121.513079
Atm,中華郵政股份有限公司,台北市,中正區,台北市中正區長沙街一段6號,25.040017,121.509907
Atm,中華郵政股份有限公司,台北市,中正區,台北市中正區愛國西路1號,25.0356043,121.5142953
Atm,中華郵政股份有限公司,台北市,中正區,台北市中正區南昌路二段232號,25.0236643,121.5246933
Atm,中華郵政股份有限公司,台北市,中正區,台北市中正區杭州南路一段24號,25.0376504,121.5246018
Atm,中華郵政股份有限公司,台北市,中正區,台北市中正區杭州南路1段24號,25.0376504,121.5246018
Atm,中華郵政股份有限公司,台北市,中正區,台北市中正區信義路二段163號,25.0340699,121.528913
Atm,中華郵政股份有限公司,台北市,中正區,台北市中正區杭州南路一段23號,25.0421434,121.5264281
Atm,中華郵政股份有限公司,台北市,中正區,台北市中正區汀州路三段301號,25.011816,121.5358871
Atm,中華郵政股份有限公司,台北市,中正區,台北市中正區徐州路5號,25.0422099,121.51947
Atm,中華郵政股份有限公司,台北市,中正區,台北市中正區重慶南路一段165號,25.0385611,121.5131031
Atm,中華郵政股份有限公司,台北市,中正區,台北市中正區秀山街1號,25.0431219,121.50896000000002
Atm,中華郵政股份有限公司,台北市,中正區,台北市中正區廣州街15號,25.0359087,121.50817279999998
Atm,中華郵政股份有限公司,台北市,中正區,台北市中正區中山南路7號,25.0402741,121.5191591
Atm,中華郵政股份有限公司,台北市,中正區,台北市中正區重慶南路一段124號,25.037986,121.511889
Atm,中華郵政股份有限公司,台北市,中正區,台北市中正區中山南路21號,25.0367564,121.519047
Atm,中華郵政股份有限公司,台北市,中正區,台北市中正區延平南路129巷1號,25.0380932,121.5091727
Atm,中華郵政股份有限公司,台北市,中正區,台北市中正區北平東路2號,25.0469368,121.5207279
Atm,中華郵政股份有限公司,台北市,中正區,台北市中正區濟南路一段1號,25.043252,121.5198947
Atm,中華郵政股份有限公司,台北市,中正區,台北市中正區徐州路21號,25.0404822,121.5250637
Atm,中華郵政股份有限公司,台北市,中正區,台北市中正區博愛路168號,25.039627,121.51108899999998
Atm,中華郵政股份有限公司,台北市,中正區,台北市中正區徐州路17號,25.0412875,121.52293799999998
Atm,中華郵政股份有限公司,台北市,中正區,台北市中正區博愛路127號,25.0380189,121.511288
Atm,中華郵政股份有限公司,台北市,中正區,台北市中正區重慶南路一段48號,25.044468,121.513113
Atm,中華郵政股份有限公司,台北市,中正區,台北市中正區信陽街8號,25.0445715,121.5159811
Atm,中華郵政股份有限公司,台北市,中正區,台北市中正區重慶南路二段43號,25.0318307,121.5146612
Atm,中華郵政股份有限公司,台北市,中正區,台北市中正區廣州街2號,25.0347701,121.5105004
Atm,中華郵政股份有限公司,台北市,中正區,台北市中正區貴陽街一段233號,25.0393183,121.5098245
Atm,中華郵政股份有限公司,台北市,中正區,台北市中正區和平西路二段68號,25.0290827,121.5115966
Atm,中華郵政股份有限公司,台北市,中正區,台北市中正區廈門街76號,25.0246327,121.51737079999998
Atm,中華郵政股份有限公司,台北市,中正區,台北市中正區忠孝西路一段1號,25.0460007,121.5193985
Atm,台北市第五信用合作社,台北市,中正區,台北市中正區南昌路二段139號,25.026015,121.522275
Atm,陽信商業銀行,台北市,中正區,台北市中正區汀州路二段40號,25.0252555,121.5176249
Atm,中華郵政股份有限公司,台北市,中正區,台北市中正區濟南路一段2之2號,25.0429702,121.5196186
Atm,中華郵政股份有限公司,台北市,中正區,台北市中正區中山南路20號,25.036731,121.519033
Atm,中華郵政股份有限公司,台北市,中正區,台北市中正區公園路64號,25.0374048,121.5148674
Atm,中華郵政股份有限公司,台北市,中正區,台北市中正區忠孝東路一段7號,25.0452201,121.5226388
Atm,中國信託商業銀行,台北市,中正區,台北市中正區汀州路三段249號,25.0136689,121.534345
Atm,中國信託商業銀行,台北市,中正區,台北市中正區紹興北街37號,25.0454739,121.52554270000002
Atm,中國信託商業銀行,台北市,中正區,台北市中正區忠孝東路二段130之2號,25.042371,121.531806
Atm,中國信託商業銀行,台北市,中正區,台北市中正區臨沂街27巷10號,25.040810600000004,121.5314078
Atm,中國信託商業銀行,台北市,中正區,台北市中正區武昌街一段1之2號,25.0457944,121.5161973
Atm,中國信託商業銀行,台北市,中正區,台北市中正區汀州路3段153號,25.0158409,121.531395
Atm,中國信託商業銀行,台北市,中正區,台北市中正區長沙街一段20號,25.0402858,121.508698
Atm,中國信託商業銀行,台北市,中正區,台北市中正區和平西路1段26號,25.0266078,121.5207325
Atm,中國信託商業銀行,台北市,中正區,台北市中正區南京東路1段132巷8號,25.0513075,121.5270438
Atm,中國信託商業銀行,台北市,中正區,台北市中正區思源街16號,25.013968,121.5301251
Atm,中國信託商業銀行,台北市,中正區,台北市中正區忠孝東路1段138號,25.0440642,121.5255183
Atm,中國信託商業銀行,台北市,中正區,台北市中正區開封街一段40號,25.045896300000006,121.5122892
Atm,中國信託商業銀行,台北市,中正區,台北市中正區中華路一段59號,25.0411918,121.5085641
Atm,中國信託商業銀行,台北市,中正區,台北市中正區華中里萬大路464號,25.0201319,121.4975998
Atm,中國信託商業銀行,台北市,中正區,台北市中正區中華路一段41號,25.044924,121.509441
Atm,中國信託商業銀行,台北市,中正區,台北市中正區忠孝東路二段100號,25.0426448,121.5311129
Atm,中國信託商業銀行,台北市,中正區,台北市中正區忠孝西路一段78號,25.0469794,121.5137259
Atm,中國信託商業銀行,台北市,中正區,台北市中正區忠孝東路一段72號,25.0444273,121.5238636
Atm,中國信託商業銀行,台北市,中正區,台北市中正區延平南路129巷3號,25.0381759,121.5100804
Atm,中國信託商業銀行,台北市,中正區,台北市中正區信義路2段15號,25.0352175,121.5253491
Atm,中國信託商業銀行,台北市,中正區,台北市中正區建國北路2段65號,25.0559164,121.5372332
Atm,中國信託商業銀行,台北市,中正區,台北市中正區南海路50號,25.0320073,121.5152171
Atm,中國信託商業銀行,台北市,中正區,台北市中正區南昌路一段72號,25.031087300000006,121.5171828
Atm,中國信託商業銀行,台北市,中正區,台北市中正區廈門街99巷19之2號,25.0236883,121.5194715
Atm,中國信託商業銀行,台北市,中正區,台北市中正區金山南路1段108號,25.035393,121.5272826
Atm,中國信託商業銀行,台北市,中正區,台北市中正區青島東路4號,25.0437361,121.5212962
Atm,中國信託商業銀行,台北市,中正區,台北市中正區博愛路80號,25.0445529,121.511239
Atm,中國信託商業銀行,台北市,中正區,台北市中正區羅斯福路三段316巷16號,25.015454,121.5323541
Atm,中國信託商業銀行,台北市,中正區,台北市中正區羅斯福路二段68號,25.0273496,121.52194009999998
Atm,中國信託商業銀行,台北市,中正區,台北市中正區南昌路二段206號,25.0240379,121.52432
Atm,中國信託商業銀行,台北市,中正區,台北市中正區廣州街10之2號,25.0354881,121.5081475
Atm,中國信託商業銀行,台北市,中正區,台北市中正區忠孝西路一段35號,25.046133,121.5187241
Atm,中國信託商業銀行,台北市,中正區,台北市中正區信陽街2之1號,25.0447279,121.5167407
Atm,中國信託商業銀行,台北市,中正區,台北市中正區重慶南路一段1號,25.0468827,121.5134018
Atm,中國信託商業銀行,台北市,中正區,台北市中正區民權東路3段73號,25.0625794,121.5435745
Atm,中國信託商業銀行,台北市,中正區,台北市中正區寧夏路71號,25.0584875,121.5152313
Atm,中國信託商業銀行,台北市,中正區,台北市中正區濟南路二段50號,25.0402629,121.5312119
Atm,中國信託商業銀行,台北市,中正區,台北市中正區臨沂街74號,25.0345844,121.5278
Atm,中國信託商業銀行,台北市,中正區,台北市中正區安和路二段67號,25.0305826,121.5525982
Atm,國防部主計局同袍儲蓄會,台北市,中正區,台北市中正區信義路二段213號,25.033876,121.53042
Atm,中國信託商業銀行,台北市,中正區,台北市中正區忠孝東路一段55號,25.0442724,121.5262697
Atm,中國信託商業銀行,台北市,中正區,台北市中正區南昌路一段135號,25.0296601,121.5185077
Atm,中國信託商業銀行,台北市,中正區,台北市中正區寧波西路86號,25.0298447,121.5159062
Atm,中國信託商業銀行,台北市,中正區,台北市中正區汀州路一段285號,25.0263615,121.5137938
Atm,中國信託商業銀行,台北市,中正區,台北市中正區漢口街一段36號,25.045078,121.513843
Atm,中國信託商業銀行,台北市,中正區,台北市中正區許昌街17號,25.0458258,121.5168269
Atm,中國信託商業銀行,台北市,中正區,台北市中正區汀州路三段269號,25.0125702,121.5354337
Atm,中國信託商業銀行,台北市,中正區,台北市中正區衡陽路6號,25.042208,121.513777
Atm,中國信託商業銀行,台北市,中正區,台北市中正區新生南路一段170巷14之3號,25.034191600000003,121.53101809999998
Atm,中國信託商業銀行,台北市,中正區,台北市中正區羅斯福路三段82號,25.0219837,121.5264479
Atm,中國信託商業銀行,台北市,中正區,台北市中正區公園路13號,25.0456252,121.517455
Atm,中國信託商業銀行,台北市,中正區,台北市中正區中華路2段157號,25.0311419,121.5042526
Atm,中國信託商業銀行,台北市,中正區,台北市中正區新生南路1段126之7號,25.0374432,121.5325148
Atm,中國信託商業銀行,台北市,中正區,台北市中正區延平南路177號,25.0344879,121.5076071
Atm,中國信託商業銀行,台北市,中正區,台北市中正區廈門街42號,25.025664000000006,121.5174127
Atm,中國信託商業銀行,台北市,中正區,台北市中正區連雲街81號,25.0343214,121.5302571
Atm,中國信託商業銀行,台北市,中正區,台北市中正區信義路一段13之1號,25.0365965,121.522523
Atm,中國信託商業銀行,台北市,中正區,台北市中正區衡陽路27號,25.0424069,121.512841
Atm,中國信託商業銀行,台北市,中正區,台北市中正區八德路一段29號,25.0441162,121.531357
Atm,中國信託商業銀行,台北市,中正區,台北市中正區館前路59號,25.0448301,121.5151514
Atm,中國信託商業銀行,台北市,中正區,台北市中正區紹興北街3號,25.0447417,121.525335
Atm,中國信託商業銀行,台北市,中正區,台北市中正區漢口街一段82號,25.0451046,121.512065
Atm,中國信託商業銀行,台北市,中正區,台北市中正區寧波西街3號,25.0315267,121.5187589
Atm,台新國際商業銀行,台北市,中正區,台北市中正區館前路12號,25.0456618,121.5147282
Atm,台新國際商業銀行,台北市,中正區,台北市中正區新生南路一段62號,25.0405318,121.5324868
Atm,台新國際商業銀行,台北市,中正區,台北市中正區忠孝西路1段66號,25.045944100000003,121.5153112
Atm,台新國際商業銀行,台北市,中正區,台北市中正區延平南路111號,25.041816,121.509581
Atm,台新國際商業銀行,台北市,中正區,台北市中正區忠孝西路一段100號,25.045955600000006,121.5182346
Atm,台新國際商業銀行,台北市,中正區,台北市中正區重慶南路一段57號,25.0446169,121.513388
Atm,台新國際商業銀行,台北市,中正區,台北市中正區羅斯福路三段28號,25.0231215,121.5251251
Atm,台新國際商業銀行,台北市,中正區,台北市中正區南昌路一段55號,25.031275,121.517357
Atm,台新國際商業銀行,台北市,中正區,台北市中正區羅斯福路三段316巷8弄1號,25.0157915,121.5326324
Atm,台新國際商業銀行,台北市,中正區,台北市中正區辛亥路一段13號,25.0190298,121.5279164
Atm,台新國際商業銀行,台北市,中正區,台北市中正區延平南路32號,25.0465447,121.51073329999998
Atm,台新國際商業銀行,台北市,中正區,台北市中正區三元街154號,25.028031,121.51072
Atm,台新國際商業銀行,台北市,中正區,台北市中正區羅斯福路二段102號,25.0266805,121.5223937
Atm,台新國際商業銀行,台北市,中正區,台北市中正區紹興北街10號,25.0455801,121.5253261
Atm,台新國際商業銀行,台北市,中正區,台北市中正區牯嶺街66號,25.0272289,121.5184895
Atm,台新國際商業銀行,台北市,中正區,台北市中正區市民大道三段8號,25.0450357,121.5319312
Atm,台新國際商業銀行,台北市,中正區,台北市中正區林森北路11號,25.0461278,121.523912
Atm,台新國際商業銀行,台北市,中正區,台北市中正區思源街1號,25.0125415,121.5300049
Atm,台新國際商業銀行,台北市,中正區,台北市中正區南海路56號,25.0309205,121.51224
Atm,台新國際商業銀行,台北市,中正區,台北市中正區襄陽路7號,25.0435121,121.5159384
Atm,台新國際商業銀行,台北市,中正區,台北市中正區館前路36號,25.0446108,121.5148771
Atm,台新國際商業銀行,台北市,中正區,台北市中正區重慶南路一段58號,25.043901,121.513106
Atm,台新國際商業銀行,台北市,中正區,台北市中正區信陽街15號,25.044802,121.5162199
Atm,台新國際商業銀行,台北市,中正區,台北市中正區延平南路68號,25.0450793,121.5102432
Atm,台新國際商業銀行,台北市,中正區,台北市中正區濟南路二段3號,25.0416754,121.5266074
Atm,台新國際商業銀行,台北市,中正區,台北市中正區許昌街26號,25.045440300000006,121.5162742
Atm,台新國際商業銀行,台北市,中正區,台北市中正區中華路二段307巷46號,25.0294171,121.5064258
Atm,台新國際商業銀行,台北市,中正區,台北市中正區汀州路二段38號,25.0252771,121.5176064
Atm,台新國際商業銀行,台北市,中正區,台北市中正區汀州路一段244號,25.0272368,121.5103452
Atm,中國信託商業銀行,台北市,中正區,台北市中正區林森南路53號,25.0401708,121.5221779
Atm,中國信託商業銀行,台北市,中正區,台北市中正區汀州路二段210號,25.0223503,121.5236954
Atm,中國信託商業銀行,台北市,中正區,台北市中正區汀州路一段127號,25.028075,121.509558
Atm,中國信託商業銀行,台北市,中正區,台北市中正區天津街65號,25.0517269,121.5235701
Atm,中國信託商業銀行,台北市,中正區,台北市中正區仁愛路2段39號,25.0385168,121.5286362
Atm,中國信託商業銀行,台北市,中正區,台北市中正區青島西路7號,25.0449309,121.518194
Atm,中國信託商業銀行,台北市,中正區,台北市中正區同安街62號,25.0233968,121.5210435
Atm,中國信託商業銀行,台北市,中正區,台北市中正區杭州南路一段83號,25.039056100000003,121.5255205
Atm,中國信託商業銀行,台北市,中正區,台北市中正區延平南路47號,25.044994600000006,121.5104795
Atm,安泰商業銀行,台北市,中正區,台北市中正區汀州路二段48號,25.0252406,121.5178998
Atm,日盛國際商業銀行,台北市,中正區,台北市中正區重慶南路一段10號,25.0466091,121.5131111
Atm,安泰商業銀行,台北市,中正區,台北市中正區南昌路一段124號,25.0296531,121.5182336
Atm,日盛國際商業銀行,台北市,中正區,台北市中正區南海路3之1號,25.027638,121.507447
Atm,台新國際商業銀行,台北市,中正區,台北市中正區羅斯福路一段4號,25.0334835,121.5172348
Atm,中國信託商業銀行,台北市,中正區,台北市中正區明水路581巷15號,25.080164,121.55094309999998
Atm,中國信託商業銀行,台北市,中正區,台北市中正區博愛路97號,25.043067,121.511644
Atm,中國信託商業銀行,台北市,中正區,台北市中正區臨沂街1號,25.0434584,121.5309785
Atm,中國信託商業銀行,台北市,中正區,台北市中正區和平西路二段152號,25.032971300000003,121.50556709999998
Atm,中國信託商業銀行,台北市,中正區,台北市中正區寧波東街17號,25.033101,121.5202768
Atm,中國信託商業銀行,台北市,中正區,台北市中正區林森南路12號,25.0425552,121.52255890000002
Atm,中國信託商業銀行,台北市,中正區,台北市中正區忠孝西路一段4號,25.0456878,121.5185191
Atm,中國信託商業銀行,台北市,中正區,台北市中正區重慶南路一段83號,25.043719600000006,121.5133574
Atm,中國信託商業銀行,台北市,中正區,台北市中正區貴陽街一段56號,25.0388741,121.50992859999998
Atm,中國信託商業銀行,台北市,中正區,台北市中正區承德路一段17號,25.0501343,121.5170607
Atm,國泰世華商業銀行,台北市,中正區,台北市中正區八德路一段82巷10號,25.043704,121.5320165
Atm,國泰世華商業銀行,台北市,中正區,台北市中正區延平南路210號,25.0347891,121.5074548
Atm,國泰世華商業銀行,台北市,中正區,台北市中正區忠孝東路一段35號,25.04449,121.52552
Atm,國泰世華商業銀行,台北市,中正區,台北市中正區忠孝東路二段128號,25.0423919,121.53172
Atm,國泰世華商業銀行,台北市,中正區,台北市中正區忠孝西路一段49號,25.0465213,121.5172446
Atm,國泰世華商業銀行,台北市,中正區,台北市中正區公園路50號,25.041139,121.515755
Atm,台灣銀行,台北市,中正區,台北市中正區博愛路131號,25.0366998,121.5111525
Atm,台灣銀行,台北市,中正區,台北市中正區仁愛路一段42號,25.038135,121.523817
Atm,台灣銀行,台北市,中正區,台北市中正區信義路一段21號,25.0358477,121.5240231
Atm,國泰世華商業銀行,台北市,中正區,台北市中正區羅斯福路四段64之1號,25.0146988,121.5341055
Atm,國泰世華商業銀行,台北市,中正區,台北市中正區羅斯福路一段8號,25.0322107,121.5183466
Atm,國泰世華商業銀行,台北市,中正區,台北市中正區愛國西路22號,25.0352482,121.5114384
Atm,國泰世華商業銀行,台北市,中正區,台北市中正區區羅斯福路一段8號,25.0326494,121.5183115
Atm,國泰世華商業銀行,台北市,中正區,台北市中正區衡陽路103號,25.042317,121.50923
Atm,國泰世華商業銀行,台北市,中正區,台北市中正區中山南路8號,25.0442304,121.5188189
Atm,國泰世華商業銀行,台北市,中正區,台北市中正區泉州街31號,25.029474,121.514336
Atm,國泰世華商業銀行,台北市,中正區,台北市中正區紹興南街4之12號,25.0398953,121.523665
Atm,國泰世華商業銀行,台北市,中正區,台北市中正區辛亥路一段17巷2號,25.0192333,121.5279626
Atm,國泰世華商業銀行,台北市,中正區,台北市中正區南陽街1號,25.0457437,121.5161821
Atm,國泰世華商業銀行,台北市,中正區,台北市中正區和平西路一段54號,25.0264125,121.5196163
Atm,國泰世華商業銀行,台北市,中正區,台北市中正區南海路100號,25.0281495,121.5082881
Atm,國泰世華商業銀行,台北市,中正區,台北市中正區南昌路一段51巷1號,25.031642,121.517357
Atm,國泰世華商業銀行,台北市,中正區,台北市中正區延平南路189號,25.0337902,121.5075471
Atm,國泰世華商業銀行,台北市,中正區,台北市中正區南昌路二段112號,25.0257837,121.5220567
Atm,華南商業銀行,台北市,中正區,台北市中正區羅斯福路一段2號,25.03413,121.516846
Atm,華南商業銀行,台北市,中正區,台北市中正區信義路一段1號,25.0382225,121.5193082
Atm,國泰世華商業銀行,台北市,中正區,台北市中正區羅斯福路二段62號,25.0275299,121.5217742
Atm,國泰世華商業銀行,台北市,中正區,台北市中正區羅斯福路二段140號,25.025806,121.522937
Atm,國泰世華商業銀行,台北市,中正區,台北市中正區忠孝東路一段86號,25.0443619,121.524546
Atm,國泰世華商業銀行,台北市,中正區,台北市中正區中山南路11號,25.0386358,121.5187302
Atm,國泰世華商業銀行,台北市,中正區,台北市中正區羅斯福路二段5號,25.0292174,121.5211335
Atm,台灣銀行,台北市,中正區,台北市中正區羅斯福路3段242號,25.0175108,121.5310058
Atm,國泰世華商業銀行,台北市,中正區,台北市中正區羅斯福路二段100號,25.0270167,121.5225559
Atm,國泰世華商業銀行,台北市,中正區,台北市中正區羅斯福路三段126之5號,25.0220485,121.5270132
Atm,合作金庫商業銀行,台北市,中正區,台北市中正區羅斯褔路一段2號,25.03413,121.516846
Atm,合作金庫商業銀行,台北市,中正區,台北市中正區汀州路三段40號,25.0163971,121.5297317
Atm,合作金庫商業銀行,台北市,中正區,台北市中正區仁愛路一段一號,25.0387757,121.5215538
Atm,合作金庫商業銀行,台北市,中正區,台北市中正區常德街1號,25.0416163,121.5171944
Atm,合作金庫商業銀行,台北市,中正區,台北市中正區徐州路2號,25.04099,121.521503
Atm,合作金庫商業銀行,台北市,中正區,台北市中正區館前路77號,25.0436707,121.5151857
Atm,國泰世華商業銀行,台北市,中正區,台北市中正區新生南路一段67號,25.042024800000004,121.5331036
Atm,國泰世華商業銀行,台北市,中正區,台北市中正區南昌路二段85號,25.0271872,121.5208595
Atm,國泰世華商業銀行,台北市,中正區,台北市中正區館前路65號,25.044228600000004,121.5151745
Atm,國泰世華商業銀行,台北市,中正區,台北市中正區仁愛路二段71號,25.0384393,121.5308337
Atm,合作金庫商業銀行,台北市,中正區,台北市中正區信義路一段3號,25.0372012,121.52134309999998
Atm,合作金庫商業銀行,台北市,中正區,台北市中正區衡陽路87號,25.0423473,121.5106252
Atm,合作金庫商業銀行,台北市,中正區,台北市中正區羅斯福路一段97號,25.0307949,121.520132
Atm,合作金庫商業銀行,台北市,中正區,台北市中正區博愛路172號,25.0371985,121.5108306
Atm,合作金庫商業銀行,台北市,中正區,台北市中正區羅斯福路四段113巷29號,25.0111614,121.5408165
Atm,第一商業銀行,台北市,中正區,台北市中正區重慶南路一段30號,25.0457505,121.5130869
Atm,台灣銀行,台北市,中正區,台北市中正區重慶南路一段120號,25.0414699,121.512912
Atm,台灣銀行,台北市,中正區,台北市中正區館前路49號,25.0448979,121.5151541
Atm,台灣銀行,台北市,中正區,台北市中正區濟南路一段4號,25.0425503,121.5204631
Atm,第一商業銀行,台北市,中正區,台北市中正區南昌路一段94號,25.0305602,121.51758429999998
Atm,台灣銀行,台北市,中正區,台北市中正區東門里15鄰紹興南街21號,25.0372992,121.5235944
Atm,台灣銀行,台北市,中正區,台北市中正區武昌街一段49號,25.0442887,121.5108963
Atm,台灣銀行,台北市,中正區,台北市中正區南海路37號,25.032068,121.5132
Atm,台灣銀行,台北市,中正區,台北市中正區濟南路一段3之1號,25.04296,121.521707
Atm,台灣銀行,台北市,中正區,台北市中正區濟南路一段3-1號,25.043032,121.5212606
Atm,台灣銀行,台北市,中正區,台北市中正區重慶南路一段130號,25.036710100000004,121.5121231
Atm,台灣銀行,台北市,中正區,台北市中正區中山南路1號,25.0439998,121.5195803
Atm,台灣銀行,台北市,中正區,台北市中正區寶慶路3號,25.041179,121.513385
Atm,台灣銀行,台北市,中正區,台北市中正區武昌街一段45號,25.0442046,121.5111993
Atm,台灣銀行,台北市,中正區,台北市中正區和平西路2段100號,25.0301475,121.5094053
Atm,台灣銀行,台北市,中正區,台北市中正區青島東路47號,25.0431384,121.5256314
Atm,台灣銀行,台北市,中正區,台北市中正區南昌路一段120號,25.0297952,121.5181348
Atm,台灣銀行,台北市,中正區,台北市中正區南昌街一段120號,25.0297952,121.5181348
Atm,第一商業銀行,台北市,中正區,台北市中正區延平南路38號,25.0462487,121.5105601
Atm,第一商業銀行,台北市,中正區,台北市中正區忠孝東路二段94號,25.0428592,121.530012
Atm,台灣土地銀行,台北市,中正區,台北市中正區羅斯福路1段4號,25.0334835,121.5172348
Atm,第一商業銀行,台北市,中正區,台北市中正區福州街12號,25.029082,121.5192681
Atm,台灣土地銀行,台北市,中正區,台北市中正區濟南路2段42號,25.0403081,121.5304396
Atm,台灣土地銀行,台北市,中正區,台北市中正區博愛路72號,25.044779,121.5112837
Atm,台灣土地銀行,台北市,中正區,台北市中正區羅斯福路3段125號,25.0219952,121.52708429999998
Atm,台灣土地銀行,台北市,中正區,台北市中正區南昌路1段4號,25.0340699,121.514877
Atm,台灣土地銀行,台北市,中正區,台北市中正區南海路3號,25.0326447,121.5167152
Atm,台灣土地銀行,台北市,中正區,台北市中正區延平南路81號,25.043659,121.510863
Atm,台灣土地銀行,台北市,中正區,台北市中正區館前路46號,25.0441134,121.5147336
Atm,華南商業銀行,台北市,中正區,台北市中正區中華路二段59號,25.0346928,121.5061599
Atm,國泰世華商業銀行,台北市,中正區,台北市中正區延平南路127號,25.0386095,121.50867990000002
Atm,國泰世華商業銀行,台北市,中正區,台北市中正區忠孝東路一段12號,25.0447417,121.5222426
Atm,國泰世華商業銀行,台北市,中正區,台北市中正區博愛路77號,25.0436045,121.51170790000002
Atm,國泰世華商業銀行,台北市,中正區,台北市中正區忠孝東路一段58號,25.0445758,121.5231079
Atm,上海商業儲蓄銀行,台北市,中正區,台北市中正區鄭州路87號,25.050018100000006,121.5124562
Atm,上海商業儲蓄銀行,台北市,中正區,台北市中正區館前路28號,25.044713,121.5148723
Atm,上海商業儲蓄銀行,台北市,中正區,台北市中正區重慶南路一段77號,25.043941,121.513411
Atm,上海商業儲蓄銀行,台北市,中正區,台北市中正區市民大道3段8號,25.0450357,121.5319312
Atm,國泰世華商業銀行,台北市,中正區,台北市中正區寶慶路32之1號,25.0415012,121.5091114
Atm,上海商業儲蓄銀行,台北市,中正區,台北市中正區仁愛路2段16號,25.0380363,121.5262409
Atm,上海商業儲蓄銀行,台北市,中正區,台北市中正區市民大道1段100號,25.0447598,121.537509
Atm,國泰世華商業銀行,台北市,中正區,台北市中正區愛國東路112號,25.0326488,121.5213509
Atm,國泰世華商業銀行,台北市,中正區,台北市中正區衡陽路7號,25.0424352,121.5137324
Atm,國泰世華商業銀行,台北市,中正區,台北市中正區南海路20號,25.0324241,121.5168667
Atm,國泰世華商業銀行,台北市,中正區,台北市中正區汀州路三段251號,25.013642,121.534413
Atm,國泰世華商業銀行,台北市,中正區,台北市中正區徐州路2之2號,25.0408213,121.5206657
Atm,國泰世華商業銀行,台北市,中正區,台北市中正區中山南路一段7號,25.0483556,121.5212538
Atm,國泰世華商業銀行,台北市,中正區,台北市中正區忠孝西路一段45號,25.0462735,121.5179101
Atm,國泰世華商業銀行,台北市,中正區,台北市中正區汀州路三段261號,25.0128419,121.5352303
Atm,國泰世華商業銀行,台北市,中正區,台北市中正區杭州南路一段147號,25.0359633,121.5246081
Atm,國泰世華商業銀行,台北市,中正區,台北市中正區汀州路三段173號,25.0150382,121.5325028
Atm,國泰世華商業銀行,台北市,中正區,台北市中正區汀州路二段216號,25.0223269,121.5238063
Atm,台北富邦商業銀行,台北市,中正區,台北市中正區福州街15號,25.0279847,121.5169523
Atm,台北富邦商業銀行,台北市,中正區,台北市中正區湖口街1號,25.0328181,121.5149357
Atm,台灣銀行,台北市,中正區,台北市中正區羅斯福路四段120號,25.0132032,121.5355969
Atm,台灣銀行,台北市,中正區,台北市中正區貴陽街一段120號,25.038992,121.5084207
Atm,台灣銀行,台北市,中正區,台北市中正區仁愛路二段99號,25.0384762,121.5323707
Atm,台灣銀行,台北市,中正區,台北市中正區杭州南路一段26號,25.0374374,121.5242967
Atm,台北富邦商業銀行,台北市,中正區,台北市中正區仁愛路二段61號,25.0384752,121.53013359999998
Atm,台北富邦商業銀行,台北市,中正區,台北市中正區延平南路96號,25.0439111,121.5097688
Atm,台北富邦商業銀行,台北市,中正區,台北市中正區市民大道一段100號,25.0456552,121.514251
Atm,台北富邦商業銀行,台北市,中正區,台北市中正區中華路二段33號,25.0355293,121.5066832
Atm,台北富邦商業銀行,台北市,中正區,台北市中正區羅斯福路三段100號,25.0259233,121.5220479
Atm,台北富邦商業銀行,台北市,中正區,台北市中正區金華街17號,25.032551100000006,121.5188765
Atm,台北富邦商業銀行,台北市,中正區,台北市中正區襄陽路9號,25.0435201,121.5157864
Atm,台北富邦商業銀行,台北市,中正區,台北市中正區信義路二段265號,25.033832,121.531794
Atm,國泰世華商業銀行,台北市,中正區,台北市中正區中華路二段311巷1號,25.0283966,121.5057421
Atm,國泰世華商業銀行,台北市,中正區,台北市中正區羅斯福路三段8號,25.023435600000006,121.524866
Atm,華南商業銀行,台北市,中正區,台北市中正區羅斯福路二段11號,25.0286493,121.5216337
Atm,華南商業銀行,台北市,中正區,台北市中正區羅斯福路三段216號,25.0189149,121.529717
Atm,國泰世華商業銀行,台北市,中正區,台北市中正區忠孝東路二段93號,25.0430592,121.5308264
Atm,國泰世華商業銀行,台北市,中正區,台北市中正區衡陽路77號,25.0423439,121.511041
Atm,國泰世華商業銀行,台北市,中正區,台北市中正區八德路一段43巷2號,25.0443907,121.5315762
Atm,國泰世華商業銀行,台北市,中正區,台北市中正區漢口街一段18號,25.0450598,121.51440490000002
Atm,國泰世華商業銀行,台北市,中正區,台北市中正區福州街10號,25.029418,121.5197744
Atm,國泰世華商業銀行,台北市,中正區,台北市中正區重慶南路一段89號,25.0436273,121.5133674
Atm,國泰世華商業銀行,台北市,中正區,台北市中正區博愛路63號,25.0443137,121.5116063
Atm,國泰世華商業銀行,台北市,中正區,台北市中正區忠孝西路一段38號,25.046234100000003,121.5164145
Atm,國泰世華商業銀行,台北市,中正區,台北市中正區開封街一段41號,25.046128,121.51255
Atm,國泰世華商業銀行,台北市,中正區,台北市中正區忠孝東路一段9號,25.0449952,121.523565
Atm,彰化商業銀行,台北市,中正區,台北市中正區信義路二段139號,25.0342017,121.5281296
Atm,彰化商業銀行,台北市,中正區,台北市中正區衡陽路68號,25.0421459,121.5116442
Atm,國泰世華商業銀行,台北市,中正區,台北市中正區博愛路76號,25.0446759,121.511328
Atm,華南商業銀行,台北市,中正區,台北市中正區泉州街15號,25.0297673,121.5143021
Atm,華南商業銀行,台北市,中正區,台北市中正區南陽街20號,25.044812,121.515978
Atm,華南商業銀行,台北市,中正區,台北市中正區重慶南路一段38號,25.044804,121.513094
Atm,華南商業銀行,台北市,中正區,台北市中正區新生南路一段48號,25.0421741,121.5325868
Atm,彰化商業銀行,台北市,中正區,台北市中正區金山南路一段47號,25.0392711,121.5289144
Atm,華南商業銀行,台北市,中正區,台北市中正區信義路二段183號,25.033979,121.529434
Atm,華南商業銀行,台北市,中正區,台北市中正區博愛路93號,25.043194,121.511646
Atm,華南商業銀行,台北市,中正區,台北市中正區福州街2號,25.0295343,121.5201616
Atm,彰化商業銀行,台北市,中正區,台北市中正區牯嶺街73號,25.0287834,121.5175233
Atm,彰化商業銀行,台北市,中正區,台北市中正區重慶南路一段27號,25.0456024,121.5133705
Con_Store,7-ELEVEN一零一門市,台北市,信義區,台北市信義區信義路五段7號,25.03397600000001,121.5645389
Con_Store,7-ELEVEN三興門市,台北市,信義區,台北市信義區吳興街156巷2弄2號4號,25.029098899999997,121.561392
Con_Store,7-ELEVEN世貿二門市,台北市,信義區,台北市信義區信義路五段5號,25.033259100000002,121.562324
Con_Store,7-ELEVEN世貿門市,台北市,信義區,台北市信義區信義路五段5號,25.033259100000002,121.562324
Con_Store,7-ELEVEN中興門市,台北市,信義區,台北市信義區基隆路二段22號,25.0319986,121.55870159999998
Con_Store,7-ELEVEN仁和門市,台北市,信義區,台北市信義區正和里光復南路419巷41號,25.036607,121.55848999999999
Con_Store,7-ELEVEN信吉門市,台北市,信義區,台北市信義區永吉路278巷58弄2號,25.0434723,121.57403490000002
Con_Store,7-ELEVEN信嘉門市,台北市,信義區,台北市信義區嘉興街181巷21號,25.026405,121.557524
Con_Store,7-ELEVEN信德門市,台北市,信義區,台北市信義區松德路200巷10號,25.0348367,121.57365800000001
Con_Store,7-ELEVEN信林門市,台北市,信義區,台北市信義區虎林街222巷7號9號,25.037203899999998,121.5771676
Con_Store,7-ELEVEN信福門市,台北市,信義區,台北市信義區福德街308號310巷1號,25.039357199999998,121.5874363
Con_Store,7-ELEVEN信運門市,台北市,信義區,台北市信義區松勤街100號,25.031810399999998,121.56665759999998
Con_Store,7-ELEVEN信遠門市,台北市,信義區,台北市信義區松仁路58號,25.0368521,121.5676666
Con_Store,7-ELEVEN信醫門市,台北市,信義區,台北市信義區吳興街346號348號,25.0258308,121.5663254
Con_Store,7-ELEVEN光復門市,台北市,信義區,台北市信義區光復南路471號,25.033725600000004,121.5576828
Con_Store,7-ELEVEN光東門市,台北市,信義區,台北市信義區忠孝東路五段524巷1弄1號,25.041214,121.57946629999999
Con_Store,7-ELEVEN凱悅門市,台北市,信義區,台北市信義區基隆路一段398號,25.0342889,121.56002659999999
Con_Store,7-ELEVEN北府門市,台北市,信義區,台北市信義區松仁路162號164號,25.028375,121.568193
Con_Store,7-ELEVEN北醫大門市,台北市,信義區,台北市信義區吳興街250號,25.0256312,121.5619186
Con_Store,7-ELEVEN北醫門市,台北市,信義區,台北市信義區吳興街252號,25.0270409,121.5631091
Con_Store,7-ELEVEN吳興門市,台北市,信義區,台北市信義區吳興街284巷18弄2號,25.0245326,121.56344229999999
Con_Store,7-ELEVEN喬治門市,台北市,信義區,台北市信義區基隆路二段155號,25.02590660000001,121.55450479999999
Con_Store,7-ELEVEN嘉馥門市,台北市,信義區,台北市信義區信義路六段21號23號,25.03444,121.575498
Con_Store,7-ELEVEN國貿門市,台北市,信義區,台北市信義區基隆路一段333號,25.034439600000002,121.5612058
Con_Store,7-ELEVEN宏泰門市,台北市,信義區,台北市信義區松仁路91-1號,25.036844600000002,121.56865459999999
Con_Store,7-ELEVEN富比世門市,台北市,信義區,台北市信義區松仁路246號248號,25.024573800000002,121.5694179
Con_Store,7-ELEVEN崇德門市,台北市,信義區,台北市信義區崇德街104號106號,25.02399500000001,121.555603
Con_Store,7-ELEVEN後山埤門市,台北市,信義區,台北市信義區中坡北路11號,25.044637899999998,121.580977
Con_Store,7-ELEVEN微風南門市,台北市,信義區,台北市信義區松智路17號,25.034307300000002,121.56595549999999
Con_Store,7-ELEVEN德鄰門市,台北市,信義區,台北市信義區松德路127號129號,25.0374435,121.5752027
Con_Store,7-ELEVEN必成門市,台北市,信義區,台北市信義區基隆路一段178號180號,25.042480100000002,121.56494540000001
Con_Store,7-ELEVEN忠林門市,台北市,信義區,台北市信義區忠孝東路五段470號,25.0406569,121.576851
Con_Store,7-ELEVEN忠興門市,台北市,信義區,台北市信義區永吉路30巷178弄1號,25.04169,121.5675
Con_Store,7-ELEVEN忠隆門市,台北市,信義區,台北市信義區忠孝東路五段71巷6號,25.0416905,121.5672236
Con_Store,7-ELEVEN惠安門市,台北市,信義區,台北市信義區惠安里吳興街520號,25.022157399999998,121.5688723
Con_Store,7-ELEVEN慶林門市,台北市,信義區,台北市信義區虎林街151號153號,25.03951,121.57673799999999
Con_Store,7-ELEVEN捷忠門市,台北市,信義區,台北市信義區忠孝東路五段617號,25.041707000000002,121.578974
Con_Store,7-ELEVEN敦厚門市,台北市,信義區,台北市信義區永吉路30巷168弄1號,25.04210530000001,121.56752150000001
Con_Store,7-ELEVEN新三連門市,台北市,信義區,台北市信義區逸仙路42巷25號,25.040468,121.563152
Con_Store,7-ELEVEN新光門市,台北市,信義區,台北市信義區松高路12號,25.038748899999998,121.5666702
Con_Store,7-ELEVEN新工農門市,台北市,信義區,台北市信義區忠孝東路五段236巷6-3號8號,25.040157999999998,121.57173799999998
Con_Store,7-ELEVEN新東宮門市,台北市,信義區,台北市信義區松山路455號,25.0397961,121.5780283
Con_Store,7-ELEVEN昌隆門市,台北市,信義區,台北市信義區基隆路二段131-4號,25.028015399999997,121.5567227
Con_Store,7-ELEVEN東暉門市,台北市,信義區,台北市信義區忠孝東路四段514號,25.040831,121.56259399999999
Con_Store,7-ELEVEN松仁門市,台北市,信義區,台北市信義區松仁路213號,25.0268129,121.56854299999999
Con_Store,7-ELEVEN松信門市,台北市,信義區,台北市信義區松信路148號,25.043684,121.571913
Con_Store,7-ELEVEN松家門市,台北市,信義區,台北市信義區松山路608號610號,25.035809399999998,121.57850079999999
Con_Store,7-ELEVEN松山門市,台北市,信義區,台北市信義區忠孝東路五段386號,25.0407542,121.5741237
Con_Store,7-ELEVEN松捷門市,台北市,信義區,台北市信義區忠孝東路五段1之6號,25.0430141,121.5814091
Con_Store,7-ELEVEN松智門市,台北市,信義區,台北市信義區莊敬路325巷43號,25.02905010000001,121.56473770000001
Con_Store,7-ELEVEN松義門市,台北市,信義區,台北市信義區松德路271號,25.032912,121.574648
Con_Store,7-ELEVEN松聯門市,台北市,信義區,台北市信義區忠孝東路四段559巷24號,25.0427038,121.56385139999999
Con_Store,7-ELEVEN松茂門市,台北市,信義區,台北市信義區松山路11號,25.0491901,121.57829939999999
Con_Store,7-ELEVEN松錢門市,台北市,信義區,台北市信義區松隆路192號194號,25.046693899999998,121.5722973
Con_Store,7-ELEVEN松鐵門市,台北市,信義區,台北市信義區松山路11號,25.0491901,121.57829939999999
Con_Store,7-ELEVEN松高門市,台北市,信義區,台北市信義區基隆路一段141號,25.0429861,121.5659519
Con_Store,7-ELEVEN永信門市,台北市,信義區,台北市信義區永吉路30巷103號,25.0435045,121.56885530000001
Con_Store,7-ELEVEN留公門市,台北市,信義區,台北市信義區福德街247號249號,25.0387468,121.5858906
Con_Store,7-ELEVEN福中門市,台北市,信義區,台北市信義區福德街159號161號,25.0376988,121.58332209999999
Con_Store,7-ELEVEN統誠門市,台北市,信義區,台北市信義區松高路11號,25.0397197,121.5658739
Con_Store,7-ELEVEN總站門市,台北市,信義區,台北市信義區吳興街486號488號,25.0234125,121.56950559999999
Con_Store,7-ELEVEN總部門市,台北市,信義區,台北市信義區東興路67號,25.046786100000002,121.56670120000001
Con_Store,7-ELEVEN聯合門市,台北市,信義區,台北市信義區忠孝東路四段559巷6號,25.041892,121.563704
Con_Store,7-ELEVEN興貿門市,台北市,信義區,台北市信義區景新里莊敬路178巷2號,25.0312165,121.56110859999998
Con_Store,7-ELEVEN萊福門市,台北市,信義區,台北市信義區林口街48號,25.038253,121.5794416
Con_Store,7-ELEVEN道生門市,台北市,信義區,台北市信義區新仁里東興路57號,25.047321,121.566457
Con_Store,7-ELEVEN醫學門市,台北市,信義區,台北市信義區吳興街257號259號,25.027248999999998,121.5637452
Con_Store,7-ELEVEN鑫吉門市,台北市,信義區,台北市信義區虎林街85號,25.044706899999998,121.577308
Con_Store,7-ELEVEN鑫國泰門市,台北市,信義區,台北市信義區忠孝東路五段68號,25.0399434,121.56688009999999
Con_Store,7-ELEVEN開源門市,台北市,信義區,台北市信義區松山路136號138號,25.04727,121.577578
Con_Store,7-ELEVEN革新門市,台北市,信義區,台北市信義區永吉路32號34號,25.0456071,121.56888980000001
Con_Store,7-ELEVEN麟運門市,台北市,信義區,台北市信義區和平東路三段461號,25.018711399999997,121.55893780000001
Con_Store,OK信義北城店,台北市,信義區,台北市信義區莊敬路393號,25.0275359,121.56569499999999
Con_Store,OK信義松壽店,台北市,信義區,台北市信義區松壽路12號,25.03531,121.5660665
Con_Store,OK信義雙和店,台北市,信義區,台北市信義區吳興街284巷21弄2號,25.0233869,121.563379
Con_Store,OK北醫店,台北市,信義區,台北市信義區吳興街220巷33號,25.027229000000002,121.56226699999999
Con_Store,OK台北三興店,台北市,信義區,台北市信義區基隆路２段39巷3號,25.031166600000002,121.5591477
Con_Store,OK台北三興店店,台北市,信義區,台北市信義區基隆路２段39巷3號1樓,25.0311666,121.5591477
Con_Store,OK台北富陽店,台北市,信義區,台北市信義區富陽街65、67號,25.021863,121.5565272
Con_Store,OK台北景聯店,台北市,信義區,台北市信義區吳興街110號,25.0312235,121.5599649
Con_Store,OK台北泰和店,台北市,信義區,台北市信義區吳興街600巷94號,25.018646,121.571179
Con_Store,OK台北黎忠店,台北市,信義區,台北市信義區和平東路３段341巷6號,25.0211545,121.55695520000002
Con_Store,全家三興店,台北市,信義區,台北市信義區吳興街7號,25.031767499999997,121.5595
Con_Store,全家五分埔店,台北市,信義區,台北市信義區中坡北路23號,25.0449439,121.58078400000001
Con_Store,全家信安店,台北市,信義區,台北市信義區松德路200巷13號,25.0345682,121.5735956
Con_Store,全家光復南路店,台北市,信義區,台北市信義區光復南路447之2號,25.0351692,121.55777240000002
Con_Store,全家六張黎店,台北市,信義區,台北市信義區和平東路三段387號,25.019849899999997,121.55757790000001
Con_Store,全家北醫店,台北市,信義區,台北市信義區吳興街263號,25.026995,121.5637993
Con_Store,全家協和店,台北市,信義區,台北市信義區中坡南路38號,25.04281910000001,121.58336670000001
Con_Store,全家南山廣場店,台北市,信義區,台北市信義區松仁路100號,25.0349965,121.56796329999999
Con_Store,全家厚雅店,台北市,信義區,台北市信義區永吉路30巷118號,25.043060600000004,121.5686593
Con_Store,全家台北101店,台北市,信義區,台北市信義區市府路45號B1(商場編號,25.0334929,121.56410100000001
Con_Store,全家大道店,台北市,信義區,台北市信義區大道路79號,25.0407616,121.5826419
Con_Store,全家富興店,台北市,信義區,台北市信義區吳興街156巷16弄1號,25.0495429,121.47186699999999
Con_Store,全家崇德店,台北市,信義區,台北市信義區崇德街29號,25.0243985,121.5537463
Con_Store,全家崧捷店,台北市,信義區,台北市信義區松山路11號,25.0491901,121.57829939999999
Con_Store,全家建鑫店,台北市,信義區,台北市信義區松壽路24號,25.035447,121.56767759999998
Con_Store,全家復昌店,台北市,信義區,台北市信義區光復南路505號,25.0320589,121.55764009999999
Con_Store,全家忠信店,台北市,信義區,台北市信義區忠孝東路五段425號,25.041112,121.575451
Con_Store,全家忠林店,台北市,信義區,台北市信義區虎林街166號,25.0391895,121.57649040000001
Con_Store,全家忠美店,台北市,信義區,台北市信義區忠孝東路五段498號,25.0408819,121.578473
Con_Store,全家新中坡店,台北市,信義區,台北市信義區中坡南路229號,25.0405585,121.5850923
Con_Store,全家新信德店,台北市,信義區,台北市信義區松德路283號,25.03244,121.574747
Con_Store,全家新安興店,台北市,信義區,台北市信義區松仁路240巷2號,25.0248579,121.56920009999999
Con_Store,全家新忠隆店,台北市,信義區,台北市信義區忠孝東路五段71巷8號,24.982873,121.5101826
Con_Store,全家新松林店,台北市,信義區,台北市信義區虎林街61-4號,25.046285,121.57711599999999
Con_Store,全家松仁店,台北市,信義區,台北市信義區信義路五段150巷221號,25.028411,121.568751
Con_Store,全家松創店,台北市,信義區,台北市信義區光復南路133號(一號,25.043846300000002,121.56131370000001
Con_Store,全家松友店,台北市,信義區,台北市信義區信義路六段78號,25.035255,121.57701599999999
Con_Store,全家松山車站店,台北市,信義區,台北市信義區松山路11號,25.0491901,121.57829939999999
Con_Store,全家松永店,台北市,信義區,台北市信義區松德路157號,25.036534600000003,121.574891
Con_Store,全家松盛店,台北市,信義區,台北市信義區松山路153號,25.0465159,121.577973
Con_Store,全家松站店,台北市,信義區,台北市信義區松隆路329巷8號,25.0485583,121.5792994
Con_Store,全家松興店,台北市,信義區,台北市信義區松山路107號,25.047798,121.57800900000001
Con_Store,全家欣富台店,台北市,信義區,台北市信義區虎林街120巷165號,25.042317999999998,121.57415800000001
Con_Store,全家欣松春店,台北市,信義區,台北市信義區松山路281號,25.043139899999996,121.578007
Con_Store,全家永信店,台北市,信義區,台北市信義區忠孝東路五段472號,25.0406441,121.57700109999999
Con_Store,全家永吉二店,台北市,信義區,台北市信義區永吉路223號,25.0457139,121.57413799999999
Con_Store,全家永孝店,台北市,信義區,台北市信義區松信路145號,25.043543,121.572162
Con_Store,全家永林店,台北市,信義區,台北市信義區虎林街82巷23號,25.0143105,121.51789369999999
Con_Store,全家永隆店,台北市,信義區,台北市信義區基隆路一段147巷7號,25.042521,121.566194
Con_Store,全家海華店,台北市,信義區,台北市信義區虎林街132巷81號,25.04024960000001,121.57411770000002
Con_Store,全家盛興店,台北市,信義區,台北市信義區吳興街334號,25.026114,121.5661273
Con_Store,全家祥和店,台北市,信義區,台北市信義區信義路五段150巷401弄31號,25.02409,121.57042
Con_Store,全家聯合店,台北市,信義區,台北市信義區忠孝東路四段553巷6弄17號,25.042370000000002,121.56348999999999
Con_Store,全家莊敬店,台北市,信義區,台北市信義區莊敬路374號,25.0275297,121.5648783
Con_Store,全家莊新店,台北市,信義區,台北市信義區莊敬路307號,25.028451,121.563382
Con_Store,全家逸鑫店,台北市,信義區,台北市信義區逸仙路42巷23號,25.0403753,121.56316580000001
Con_Store,萊爾富信義首府店,台北市,信義區,台北市信義區市府路1號,25.0458833,121.570232
Con_Store,萊爾富北市101店,台北市,信義區,台北市信義區信義路5段20號,25.033168300000003,121.5632537
Con_Store,萊爾富北市信北店,台北市,信義區,台北市信義區中坡北路17.19號,25.0448282,121.580905
Con_Store,萊爾富北市信吉店,台北市,信義區,台北市信義區永吉路125號,25.0458833,121.570232
Con_Store,萊爾富北市信彩店,台北市,信義區,台北市信義區基隆路一段350之41,25.0359734,121.5610874
Con_Store,萊爾富北市信德店,台北市,信義區,台北市信義區虎林街164巷60弄2號,25.037987899999997,121.57448799999999
Con_Store,萊爾富北市信誠店,台北市,信義區,台北市信義區松山路537號及541巷1號,25.0378566,121.57827520000001
Con_Store,萊爾富北市松永店,台北市,信義區,台北市信義區永吉路280號,25.045371,121.57425390000002
Con_Store,萊爾富北市林口店,台北市,信義區,台北市信義區林口街36號,25.037798000000002,121.57953090000001
Con_Store,萊爾富北市福德店,台北市,信義區,台北市信義區福德街266號,25.038884,121.58589209999998
Con_Store,萊爾富首府和盟店,台北市,信義區,台北市信義區市府路1號,25.052382,121.51881200000001
Con_Store,萊爾富首府騰雲店,台北市,信義區,台北市信義區市府路1號,25.063947,121.44842
Atm,元大商業銀行,台北市,信義區,台北市信義區基隆路333號,25.0344396,121.5612058
Atm,元大商業銀行,台北市,信義區,台北市信義區松高路11號,25.0397197,121.5658739
Atm,永豐商業銀行,台北市,信義區,台北市信義區莊敬路294號,25.028442,121.562958
Atm,元大商業銀行,台北市,信義區,台北市信義區忠孝東路5段675號,25.042117,121.579722
Atm,元大商業銀行,台北市,信義區,台北市信義區基隆路二段123號,25.0285152,121.5570645
Atm,元大商業銀行,台北市,信義區,台北市信義區忠孝東路5段400號,25.0407168,121.5748504
Atm,元大商業銀行,台北市,信義區,台北市信義區忠孝東路五段478號,25.04064,121.577429
Atm,永豐商業銀行,台北市,信義區,台北市信義區松德路132號,25.0372796,121.5742551
Atm,永豐商業銀行,台北市,信義區,台北市信義區福德街251巷33號,25.0365198,121.5874838
Atm,永豐商業銀行,台北市,信義區,台北市信義區福德街221巷12號,25.0372835,121.5846705
Atm,永豐商業銀行,台北市,信義區,台北市信義區忠孝東路五段8號,25.0406227,121.5654586
Atm,永豐商業銀行,台北市,信義區,台北市信義區永吉路352號,25.045032,121.576528
Atm,永豐商業銀行,台北市,信義區,台北市信義區吳興街252號,25.0270409,121.5631091
Atm,永豐商業銀行,台北市,信義區,台北市信義區松山路130號,25.0475429,121.577583
Atm,聯邦商業銀行,台北市,信義區,台北市信義區基隆路二段39巷3號,25.0311666,121.5591477
Atm,聯邦商業銀行,台北市,信義區,台北市信義區忠孝東路五段453號,25.041105,121.5763441
Atm,聯邦商業銀行,台北市,信義區,台北市信義區永吉路306號,25.0453747,121.5750999
Atm,聯邦商業銀行,台北市,信義區,台北市信義區吳興街600巷94號,25.018646,121.571179
Atm,中華郵政股份有限公司,台北市,信義區,台北市信義區松山路645號,25.0359032,121.5786976
Atm,遠東國際商業銀行,台北市,信義區,台北市信義區松仁路58號,25.0368521,121.5676666
Atm,遠東國際商業銀行,台北市,信義區,台北市信義區忠孝東路五段297號,25.0412392,121.5732493
Atm,遠東國際商業銀行,台北市,信義區,台北市信義區基隆路一段200號,25.0401707,121.5635384
Atm,遠東國際商業銀行,台北市,信義區,台北市信義區光復南路505號,25.0320589,121.5576401
Atm,聯邦商業銀行,台北市,信義區,台北市信義區松高路16號,25.0387252,121.5672796
Atm,聯邦商業銀行,台北市,信義區,台北市信義區忠孝東路5段68號,25.0399434,121.5668801
Atm,遠東國際商業銀行,台北市,信義區,台北市信義區中坡北路7號,25.0444219,121.5810204
Atm,聯邦商業銀行,台北市,信義區,台北市信義區松智路17號,25.0343073,121.5659555
Atm,台新國際商業銀行,台北市,信義區,台北市信義區大道路79號,25.0407616,121.5826419
Atm,台新國際商業銀行,台北市,信義區,台北市信義區吳興街7號,25.0317675,121.5595
Atm,台新國際商業銀行,台北市,信義區,台北市信義區和平東路三段387號,25.0198489,121.5575787
Atm,台新國際商業銀行,台北市,信義區,台北市信義區中坡北路23號,25.0449439,121.580784
Atm,台新國際商業銀行,台北市,信義區,台北市信義區吳興街284巷21弄2號,25.0233869,121.563379
Atm,台新國際商業銀行,台北市,信義區,台北市信義區和平東路三段341巷6號,25.0211545,121.55695520000002
Atm,台新國際商業銀行,台北市,信義區,台北市信義區吳興街110號,25.0312235,121.5599649
Atm,台新國際商業銀行,台北市,信義區,台北市信義區富陽街65號,25.0219246,121.5565542
Atm,台新國際商業銀行,台北市,信義區,台北市信義區吳興街220巷33號,25.027229,121.562267
Atm,台新國際商業銀行,台北市,信義區,台北市信義區莊敬路393號,25.0275359,121.565695
Atm,台新國際商業銀行,台北市,信義區,台北市信義區忠孝東路五段425號,25.041112,121.575451
Atm,台新國際商業銀行,台北市,信義區,台北市信義區虎林街166號,25.039067000000006,121.576422
Atm,台新國際商業銀行,台北市,信義區,台北市信義區信義路五段150巷221號,25.028411,121.568751
Atm,台新國際商業銀行,台北市,信義區,台北市信義區虎林街120巷165號,25.042318,121.574158
Atm,台新國際商業銀行,台北市,信義區,台北市信義區松山路281號,25.0431399,121.578007
Atm,台新國際商業銀行,台北市,信義區,台北市信義區松山路153號,25.0465159,121.577973
Atm,台新國際商業銀行,台北市,信義區,台北市信義區松隆路329巷8號,25.0485583,121.5792994
Atm,台新國際商業銀行,台北市,信義區,台北市信義區吳興街263號,25.0270919,121.5638048
Atm,台新國際商業銀行,台北市,信義區,台北市信義區基隆路一段147巷7號,25.042521,121.566194
Atm,台新國際商業銀行,台北市,信義區,台北市信義區忠孝東路五段472號,25.0406441,121.5770011
Atm,台新國際商業銀行,台北市,信義區,台北市信義區虎林街82巷23號,25.0434378,121.5762287
Atm,台新國際商業銀行,台北市,信義區,台北市信義區松信路145號,25.043543,121.572162
Atm,台新國際商業銀行,台北市,信義區,台北市信義區永吉路223號,25.0457139,121.574138
Atm,凱基商業銀行,台北市,信義區,台北市信義區松山路132號,25.0475114,121.5775768
Atm,玉山商業銀行,台北市,信義區,台北市信義區松壽路12號,25.03531,121.5660665
Atm,永豐商業銀行,台北市,信義區,台北市信義區永吉路125號,25.0458753,121.570224
Atm,永豐商業銀行,台北市,信義區,台北市信義區中坡北路17號,25.044813,121.580927
Atm,玉山商業銀行,台北市,信義區,台北市信義區基隆路二段41號,25.0312643,121.5586743
Atm,玉山商業銀行,台北市,信義區,台北市信義區市府路1號,25.037531,121.5639969
Atm,玉山商業銀行,台北市,信義區,台北市信義區松仁路100號,25.0344055,121.5671656
Atm,玉山商業銀行,台北市,信義區,台北市信義區信義路5段100號,25.0326659,121.56552179999998
Atm,玉山商業銀行,台北市,信義區,台北市信義區永吉路363號,25.0456289,121.576644
Atm,華泰商業銀行,台北市,信義區,台北市信義區永吉路348號,25.0450439,121.576337
Atm,華泰商業銀行,台北市,信義區,台北市信義區松德路65號,25.0384449,121.576699
Atm,華泰商業銀行,台北市,信義區,台北市信義區光復南路475號,25.0336108,121.5576408
Atm,瑞興商業銀行,台北市,信義區,台北市信義區永吉路189-5號,25.045776,121.573018
Atm,瑞興商業銀行,台北市,信義區,台北市信義區松山路11號,25.0491901,121.5782994
Atm,匯豐（台灣）商業銀行,台北市,信義區,台北市信義區基隆路一段333號,25.0344396,121.5612058
Atm,華泰商業銀行,台北市,信義區,台北市信義區和平東路三段321號,25.0212773,121.5561063
Atm,瑞興商業銀行,台北市,信義區,台北市信義區信義路六段31號,25.034739,121.57591200000002
Atm,台灣新光商業銀行,台北市,信義區,台北市信義區忠孝東路五段510號,25.041154,121.578971
Atm,台灣新光商業銀行,台北市,信義區,台北市信義區信義路五段122號,25.0322718,121.5687553
Atm,台灣新光商業銀行,台北市,信義區,台北市信義區信義路五段8號,25.0327014,121.5608602
Atm,台灣新光商業銀行,台北市,信義區,台北市信義區松仁路38號,25.0382675,121.5681767
Atm,台灣新光商業銀行,台北市,信義區,台北市信義區市府路45號,25.0333632,121.5639692
Atm,兆豐國際商業銀行,台北市,信義區,台北市信義區忠孝東路四段547號,25.041735600000006,121.5621004
Atm,兆豐國際商業銀行,台北市,信義區,台北市信義區基隆路二段65號,25.0307829,121.5584418
Atm,兆豐國際商業銀行,台北市,信義區,台北市信義區忠孝東路四段550號,25.040801,121.5631753
Atm,兆豐國際商業銀行,台北市,信義區,台北市信義區忠孝東路四段563號,25.04154,121.564254
Atm,花旗（台灣）商業銀行,台北市,信義區,台北市信義區信義路五段5號,25.0332591,121.562324
Atm,渣打國際商業銀行,台北市,信義區,台北市信義區松仁路97號,25.0362006,121.568653
Atm,渣打國際商業銀行,台北市,信義區,台北市信義區信義路五段7號,25.033976000000006,121.5645389
Atm,匯豐（台灣）商業銀行,台北市,信義區,台北市信義區松仁路93號,25.0367724,121.5691327
Atm,京城商業銀行,台北市,信義區,台北市信義區忠孝東路5段743巷29號,25.0441251,121.5809585
Atm,台中商業銀行,台北市,信義區,台北市信義區基隆路一段176號,25.0427433,121.56507859999998
Atm,花旗（台灣）商業銀行,台北市,信義區,台北市信義區松智路1號,25.0387588,121.5662595
Atm,花旗（台灣）商業銀行,台北市,信義區,台北市信義區信義路四段460號,25.0328599,121.5587264
Atm,花旗（台灣）商業銀行,台北市,信義區,台北市信義區菸廠路88號,25.0445556,121.5614518
Atm,台灣中小企業銀行,台北市,信義區,台北市信義區光復南路547號,25.031695000000006,121.5576495
Atm,台灣中小企業銀行,台北市,信義區,台北市信義區基隆路一段161號,25.041896,121.565197
Atm,台灣中小企業銀行,台北市,信義區,台北市信義區忠孝東路五段552號,25.041882,121.580069
Atm,中華郵政股份有限公司,台北市,信義區,台北市信義區莊敬路418號,25.0269119,121.566401
Atm,中華郵政股份有限公司,台北市,信義區,台北市信義區忠孝東路五段464、466號,25.040661,121.576702
Atm,中華郵政股份有限公司,台北市,信義區,台北市信義區永吉路168號,25.0454849,121.5710128
Atm,中華郵政股份有限公司,台北市,信義區,台北市信義區松德路300號,25.0320543,121.574243
Atm,中華郵政股份有限公司,台北市,信義區,台北市信義區仁愛路四段505號,25.0396974,121.5603729
Atm,中華郵政股份有限公司,台北市,信義區,台北市信義區松廉路76號,25.0337904,121.5672239
Atm,中華郵政股份有限公司,台北市,信義區,台北市信義區吳興街250號,25.0256312,121.5619186
Atm,中華郵政股份有限公司,台北市,信義區,台北市信義區逸仙路46號,25.040346,121.56176200000002
Atm,台灣新光商業銀行,台北市,信義區,台北市信義區松仁路36號,25.0386155,121.5682113
Atm,陽信商業銀行,台北市,信義區,台北市信義區和平東路三段225、227號,25.023293,121.55391509999998
Atm,台灣新光商業銀行,台北市,信義區,台北市信義區松高路19號,25.0396922,121.5664837
Atm,台灣新光商業銀行,台北市,信義區,台北市信義區松壽路11號,25.036544600000006,121.5672369
Atm,台灣新光商業銀行,台北市,信義區,台北市信義區松高路12號,25.0387489,121.5666702
Atm,台灣新光商業銀行,台北市,信義區,台北市信義區松壽路16號,25.0356697,121.5665421
Atm,台灣新光商業銀行,台北市,信義區,台北市信義區松壽路9號,25.036619,121.566757
Atm,基隆第一信用合作社,台北市,信義區,台北市信義區松山路495號,25.0387296,121.5781217
Atm,板信商業銀行,台北市,信義區,台北市信義區基隆路二段127號,25.0284104,121.5569647
Atm,板信商業銀行,台北市,信義區,台北市信義區莊敬路196號,25.0305284,121.5612625
Atm,中國信託商業銀行,台北市,信義區,台北市信義區忠孝東路5段617號,25.041707,121.578974
Atm,中國信託商業銀行,台北市,信義區,台北市信義區基隆路一段398號,25.0342889,121.5600266
Atm,中國信託商業銀行,台北市,信義區,台北市信義區忠孝東路四段205巷7弄5號,25.04216,121.55220020000002
Atm,中國信託商業銀行,台北市,信義區,台北市信義區崇德街95號,25.024188100000003,121.5556466
Atm,中國信託商業銀行,台北市,信義區,台北市信義區永吉路32號,25.0456071,121.5688898
Atm,中國信託商業銀行,台北市,信義區,台北市信義區福德街249號,25.038736,121.58596740000002
Atm,中國信託商業銀行,台北市,信義區,台北市信義區仁愛路四段266巷15弄22號,25.0365417,121.5542291
Atm,中國信託商業銀行,台北市,信義區,台北市信義區忠孝東路6段276號,25.049101500000006,121.5890698
Atm,中國信託商業銀行,台北市,信義區,台北市信義區松山路136號,25.04727,121.577578
Atm,中國信託商業銀行,台北市,信義區,台北市信義區林口街48號,25.038253,121.5794416
Atm,中國信託商業銀行,台北市,信義區,台北市信義區松仁路246號,25.0245738,121.5694179
Atm,中國信託商業銀行,台北市,信義區,台北市信義區基隆路二段155號,25.025906600000006,121.5545048
Atm,中國信託商業銀行,台北市,信義區,台北市信義區吳興街520號,25.0221574,121.5688723
Atm,中國信託商業銀行,台北市,信義區,台北市信義區永吉路30巷168弄1號,25.042105300000006,121.5675215
Atm,中國信託商業銀行,台北市,信義區,台北市信義區松仁路213號,25.0268129,121.568543
Atm,中國信託商業銀行,台北市,信義區,台北市信義區忠孝東路5段386號,25.0407542,121.5741237
Atm,中國信託商業銀行,台北市,信義區,台北市信義區忠孝東路四段514號,25.040831,121.562594
Atm,中國信託商業銀行,台北市,信義區,台北市信義區松信路148號,25.043684,121.571913
Atm,中國信託商業銀行,台北市,信義區,台北市信義區松山路608、610號,25.0358094,121.5785008
Atm,中國信託商業銀行,台北市,信義區,台北市信義區忠孝東路四段559巷24號,25.0427038,121.5638514
Atm,中國信託商業銀行,台北市,信義區,台北市信義區松隆路192號,25.046757100000004,121.5722919
Atm,中國信託商業銀行,台北市,信義區,台北市信義區松德路271號,25.032912,121.574648
Atm,中國信託商業銀行,台北市,信義區,台北市信義區莊敬路325巷43號,25.029050100000006,121.5647377
Atm,中國信託商業銀行,台北市,信義區,台北市信義區忠孝東路5段1之6號,25.0430141,121.5814091
Atm,中國信託商業銀行,台北市,信義區,台北市信義區基隆路一段135之2號,25.0440544,121.5665544
Atm,中國信託商業銀行,台北市,信義區,台北市信義區永吉路30巷178弄1號,25.04169,121.5675
Atm,中國信託商業銀行,台北市,信義區,台北市信義區忠孝東路五段71巷6號,25.0416905,121.5672236
Atm,中國信託商業銀行,台北市,信義區,台北市信義區忠孝東路五段470號,25.0406569,121.576851
Atm,中國信託商業銀行,台北市,信義區,台北市信義區基隆路2段131之4號,25.0278677,121.5566731
Atm,中國信託商業銀行,台北市,信義區,台北市信義區吳興街346號,25.0258308,121.5663254
Atm,中國信託商業銀行,台北市,信義區,台北市信義區松德路200巷10號,25.0348367,121.573658
Atm,中國信託商業銀行,台北市,信義區,台北市信義區中坡北路11號,25.0446379,121.580977
Atm,中國信託商業銀行,台北市,信義區,台北市信義區福德街308號,25.0393572,121.5874363
Atm,中國信託商業銀行,台北市,信義區,台北市信義區嘉興街181巷21號,25.026405,121.557524
Atm,中國信託商業銀行,台北市,信義區,台北市信義區虎林街222巷7號,25.0372039,121.5771676
Atm,中國信託商業銀行,台北市,信義區,台北市信義區基隆路3段85號,25.0185814,121.5464175
Atm,中國信託商業銀行,台北市,信義區,台北市信義區松勤街100號,25.0318104,121.56665759999998
Atm,中國信託商業銀行,台北市,信義區,台北市信義區和平東路三段461號,25.0187114,121.5589378
Atm,中國信託商業銀行,台北市,信義區,台北市信義區吳興街257號,25.027249,121.5637452
Atm,中國信託商業銀行,台北市,信義區,台北市信義區忠孝東路四段559巷6號,25.041892,121.563704
Atm,中國信託商業銀行,台北市,信義區,台北市信義區東興路65號,25.046869,121.566663
Atm,中國信託商業銀行,台北市,信義區,台北市信義區吳興街486號,25.0234125,121.5695056
